State and County,FIPS,Longitude,Latitude,Population(2010),Total Area mi²
AL Autauga County,1001,-86.64449,32.536382,"54,571",604.388
AL Baldwin County,1003,-87.746067,30.659218,"182,265","2,027.311"
AL Barbour County,1005,-85.405456,31.87067,"27,457",904.515
AL Bibb County,1007,-87.127148,33.015893,"22,915",626.169
AL Blount County,1009,-86.567246,33.977448,"57,322",650.628
AL Bullock County,1011,-85.717261,32.101759,"10,914",625.143
AL Butler County,1013,-86.681969,31.751667,"20,947",777.882
AL Calhoun County,1015,-85.822513,33.771706,"118,572",612.287
AL Chambers County,1017,-85.391812,32.917943,"34,215",603.113
AL Cherokee County,1019,-85.654242,34.069515,"25,989",599.978
AL Chilton County,1021,-86.726628,32.85406,"43,643",700.802
AL Choctaw County,1023,-88.248887,31.991008,"13,859",920.859
AL Clarke County,1025,-87.818624,31.685521,"25,833","1,252.574"
AL Clay County,1027,-85.862051,33.267809,"13,932",606.001
AL Cleburne County,1029,-85.516109,33.671981,"14,972",561.013
AL Coffee County,1031,-85.989201,31.402183,"49,948",680.495
AL Colbert County,1033,-87.801457,34.703112,"54,428",622.129
AL Conecuh County,1035,-86.992029,31.428293,"13,228",852.722
AL Coosa County,1037,-86.243482,32.931445,"11,539",666.349
AL Covington County,1039,-86.448721,31.243987,"37,765","1,043.787"
AL Crenshaw County,1041,-86.319222,31.732826,"13,906",610.916
AL Cullman County,1043,-86.869267,34.131923,"80,406",755.021
AL Dale County,1045,-85.609476,31.430654,"50,251",562.701
AL Dallas County,1047,-87.114356,32.33354,"43,820",993.805
AL Dekalb County,1049,-85.803992,34.460929,"71,109",778.685
AL Elmore County,1051,-86.142739,32.597229,"79,303",657.042
AL Escambia County,1053,-87.168429,31.121748,"38,319",953.139
AL Etowah County,1055,-86.03442,34.047638,"104,430",548.629
AL Fayette County,1057,-87.752049,33.732249,"17,241",629.356
AL Franklin County,1059,-87.842815,34.441988,"31,704",646.523
AL Geneva County,1061,-85.824346,31.090866,"26,790",578.951
AL Greene County,1063,-87.964201,32.844497,"9,045",659.941
AL Hale County,1065,-87.623061,32.752796,"15,760",656.501
AL Henry County,1067,-85.239971,31.516978,"17,302",568.309
AL Houston County,1069,-85.296398,31.158193,"101,547",581.654
AL Jackson County,1071,-85.9774,34.763522,"53,227","1,126.771"
AL Jefferson County,1073,-86.896536,33.553444,"658,466","1,123.814"
AL Lamar County,1075,-88.087431,33.787085,"14,564",605.464
AL Lauderdale County,1077,-87.650997,34.904122,"92,709",720.990
AL Lawrence County,1079,-87.321865,34.529776,"34,339",717.199
AL Lee County,1081,-85.353048,32.604064,"140,247",615.849
AL Limestone County,1083,-86.9814,34.810239,"82,782",607.188
AL Lowndes County,1085,-86.650586,32.147888,"11,299",725.071
AL Macon County,1087,-85.692887,32.387027,"21,452",613.207
AL Madison County,1089,-86.55108,34.764238,"334,811",812.702
AL Marengo County,1091,-87.791091,32.247591,"21,027",982.671
AL Marion County,1093,-87.881551,34.138219,"30,776",743.571
AL Marshall County,1095,-86.321668,34.309564,"93,019",623.179
AL Mobile County,1097,-88.196568,30.684573,"412,992","1,644.012"
AL Monroe County,1099,-87.383266,31.580332,"23,068","1,034.418"
AL Montgomery County,1101,-86.203831,32.203651,"229,363",799.912
AL Morgan County,1103,-86.846402,34.454484,"119,490",599.053
AL Perry County,1105,-87.293827,32.639005,"10,591",723.880
AL Pickens County,1107,-88.096878,33.296809,"19,746",890.125
AL Pike County,1109,-85.941997,31.798726,"32,899",673.006
AL Randolph County,1111,-85.464068,33.296475,"22,913",584.135
AL Russell County,1113,-85.18698,32.289811,"52,947",647.192
AL Saint Clair County,1115,-86.315663,33.712963,"83,593",653.640
AL Shelby County,1117,-86.678104,33.262937,"195,085",809.525
AL Sumter County,1119,-88.200057,32.597481,"13,763",913.322
AL Talladega County,1121,-86.175805,33.369277,"82,291",760.306
AL Tallapoosa County,1123,-85.799553,32.863369,"41,616",766.254
AL Tuscaloosa County,1125,-87.52286,33.290202,"194,656","1,351.252"
AL Walker County,1127,-87.301092,33.791571,"67,023",805.194
AL Washington County,1129,-88.202078,31.406974,"17,581","1,088.566"
AL Wilcox County,1131,-87.302205,31.99033,"11,670",907.411
AL Winston County,1133,-87.364147,34.155888,"24,484",631.868
AK Aleutians East County,2013,-161.950749,55.243722,"3,141","15,009.860"
AK Aleutians West [4] County,2016,-178.338813,51.959447,"5,561","14,116.438"
AK Anchorage County,2020,-149.274354,61.177549,"291,826","1,961.001"
AK Bethel [4] County,2050,-160.15335,60.928916,"17,013","45,504.205"
AK Bristol Bay County,2060,-156.986612,58.731373,997,887.563
AK Denali County,2068,-150.026719,63.682732,"1,826","12,776.920"
AK Dillingham [4] County,2070,-158.602233,59.824816,"4,847","20,915.207"
AK Fairbanks North Star County,2090,-146.599867,64.690832,"97,581","7,443.688"
AK Haines County,2100,-135.578102,59.099905,"2,508","2,725.503"
AK Hoonah-Angoon [4] County,2105,-135.1851,58.076434,"2,150","10,914.153"
AK Juneau County,2110,-134.178781,58.3727,"31,275","3,253.893"
AK Kenai Peninsula County,2122,-152.321973,60.366373,"55,400","24,752.317"
AK Ketchikan Gateway County,2130,-131.106685,55.449938,"13,477","6,653.563"
AK Kodiak Island County,2150,-153.630911,57.553611,"13,592","12,021.829"
AK Lake And Peninsula County,2164,-156.705188,58.205065,"1,631","32,922.499"
AK Matanuska-Susitna County,2170,-149.407974,62.182174,"88,995","25,257.607"
AK Nome [4] County,2180,-164.188912,64.783686,"9,492","28,277.620"
AK North Slope County,2185,-153.47283,69.449343,"9,430","94,796.283"
AK Northwest Arctic County,2188,-160.021086,67.005066,"7,523","40,748.935"
AK Petersburg [4] County,2195,-133.527996,56.639612,"3,815","5,684.066"
AK Prince Of Wales-Hyder [4] County,2198,-132.875734,55.415683,"5,559","7,683.284"
AK Sitka County,2220,-135.332624,57.142509,"8,881","4,811.431"
AK Skagway County,2230,-135.335418,59.575097,968,464.036
AK Southeast Fairbanks [4] County,2240,-143.218628,63.864997,"7,029","25,059.464"
AK Valdez-Cordova [4] County,2261,-145.023141,61.34984,"9,636","40,340.175"
AK Wade Hampton [4] County,2270,-163.19095,62.283174,"7,459","19,672.951"
AK Wrangell County,2275,-132.040326,56.279121,"2,369","3,462.057"
AK Yakutat County,2282,-140.239593,59.999083,662,"9,462.867"
AK Yukon-Koyukuk [4] County,2290,-151.576855,65.376131,"5,588","147,804.631"
AZ Apache County,4001,-109.493747,35.385845,"71,518","11,218.438"
AZ Cochise County,4003,-109.75412,31.881793,"131,346","6,218.596"
AZ Coconino County,4005,-111.773728,35.829692,"134,421","18,661.342"
AZ Gila County,4007,-110.81187,33.789618,"53,597","4,795.428"
AZ Graham County,4009,-109.87831,32.931828,"37,220","4,641.066"
AZ Greenlee County,4011,-109.242323,33.238872,"8,437","1,848.433"
AZ La Paz County,4012,-114.038793,33.727625,"20,489","4,513.753"
AZ Maricopa County,4013,-112.495534,33.346541,"3,817,117","9,224.389"
AZ Mohave County,4015,-113.749689,35.717705,"200,186","13,460.649"
AZ Navajo County,4017,-110.320908,35.390934,"107,449","9,959.719"
AZ Pima County,4019,-111.783018,32.128237,"980,263","9,189.097"
AZ Pinal County,4021,-111.367257,32.91891,"375,770","5,374.234"
AZ Santa Cruz County,4023,-110.84519,31.525904,"47,420","1,238.108"
AZ Yavapai County,4025,-112.573745,34.630044,"211,033","8,127.940"
AZ Yuma County,4027,-113.910905,32.773942,"195,751","5,519.109"
AR Arkansas County,5001,-91.376547,34.289574,"19,019","1,033.749"
AR Ashley County,5003,-91.772267,33.190835,"21,853",940.527
AR Baxter County,5005,-92.330438,36.28071,"41,513",586.715
AR Benton County,5007,-94.256187,36.337825,"221,339",883.906
AR Boone County,5009,-93.079204,36.304308,"36,903",601.831
AR Bradley County,5011,-92.168164,33.463819,"11,508",652.917
AR Calhoun County,5013,-92.513879,33.56046,"5,368",632.414
AR Carroll County,5015,-93.541663,36.337774,"27,446",638.800
AR Chicot County,5017,-91.297158,33.267139,"11,800",690.787
AR Clark County,5019,-93.176205,34.053312,"22,995",882.829
AR Clay County,5021,-90.418704,36.367302,"16,083",641.436
AR Cleburne County,5023,-92.059974,35.566288,"25,970",591.922
AR Cleveland County,5025,-92.188714,33.893201,"8,689",598.748
AR Columbia County,5027,-93.226901,33.21507,"24,552",766.753
AR Conway County,5029,-92.689248,35.265702,"21,273",566.668
AR Craighead County,5031,-90.630411,35.828268,"96,443",712.674
AR Crawford County,5033,-94.236224,35.583041,"61,948",604.242
AR Crittenden County,5035,-90.315331,35.211878,"50,902",636.377
AR Cross County,5037,-90.773894,35.291259,"17,870",622.307
AR Dallas County,5039,-92.653999,33.967823,"8,116",668.106
AR Desha County,5041,-91.244427,33.828748,"13,008",819.526
AR Drew County,5043,-91.722778,33.587242,"18,509",835.661
AR Faulkner County,5045,-92.324654,35.146356,"113,237",664.072
AR Franklin County,5047,-93.887672,35.508573,"18,125",619.642
AR Fulton County,5049,-91.819239,36.383443,"12,245",620.328
AR Garland County,5051,-93.146915,34.578861,"96,024",734.621
AR Grant County,5053,-92.423984,34.288063,"17,853",632.930
AR Greene County,5055,-90.565241,36.119922,"42,090",579.563
AR Hempstead County,5057,-93.665809,33.728611,"22,609",741.177
AR Hot Spring County,5059,-92.944147,34.315177,"32,923",622.172
AR Howard County,5061,-93.990988,34.083179,"13,789",595.314
AR Independence County,5063,-91.559942,35.737499,"36,647",771.518
AR Izard County,5065,-91.913625,36.094879,"13,696",584.018
AR Jackson County,5067,-91.223178,35.596605,"17,997",641.501
AR Jefferson County,5069,-91.930701,34.277696,"77,435",913.776
AR Johnson County,5071,-93.466322,35.573359,"25,540",682.744
AR Lafayette County,5073,-93.611643,33.24066,"7,645",545.079
AR Lawrence County,5075,-91.101153,36.041098,"17,415",592.342
AR Lee County,5077,-90.779288,34.77975,"10,424",619.502
AR Lincoln County,5079,-91.727624,33.957665,"14,134",572.185
AR Little River County,5081,-94.229774,33.699497,"13,171",564.766
AR Logan County,5083,-93.720563,35.21855,"22,353",731.560
AR Lonoke County,5085,-91.894132,34.755114,"68,356",802.840
AR Madison County,5087,-93.724053,36.012545,"15,717",837.080
AR Marion County,5089,-92.678588,36.266656,"16,653",640.320
AR Miller County,5091,-93.901509,33.305505,"43,462",637.649
AR Mississippi County,5093,-90.052209,35.766943,"46,480",919.812
AR Monroe County,5095,-91.203314,34.679513,"8,149",621.298
AR Montgomery County,5097,-93.664147,34.545652,"9,487",800.289
AR Nevada County,5099,-93.305072,33.666699,"8,997",620.639
AR Newton County,5101,-93.215084,35.910063,"8,330",823.186
AR Ouachita County,5103,-92.878418,33.591158,"26,120",739.752
AR Perry County,5105,-92.926877,34.946363,"10,445",560.533
AR Phillips County,5107,-90.848386,34.425842,"21,757",727.345
AR Pike County,5109,-93.658659,34.158191,"11,291",614.130
AR Poinsett County,5111,-90.680595,35.568981,"24,583",763.610
AR Polk County,5113,-94.230884,34.490915,"20,662",862.462
AR Pope County,5115,-93.031535,35.455297,"61,754",830.775
AR Prairie County,5117,-91.5572,34.828225,"8,715",675.614
AR Pulaski County,5119,-92.316515,34.773988,"382,748",807.663
AR Randolph County,5121,-91.028441,36.341299,"17,969",656.040
AR Saint Francis County,5123,-90.742199,35.014438,"28,258",642.512
AR Saline County,5125,-92.674463,34.648525,"107,118",730.490
AR Scott County,5127,-94.063641,34.858869,"11,233",898.073
AR Searcy County,5129,-92.699351,35.90966,"8,195",668.511
AR Sebastian County,5131,-94.274989,35.196981,"125,744",546.160
AR Sevier County,5133,-94.24329,33.994608,"17,058",581.277
AR Sharp County,5135,-91.471069,36.173399,"17,264",606.436
AR Stone County,5137,-92.140494,35.856989,"12,394",609.432
AR Union County,5139,-92.598145,33.168219,"41,639","1,055.199"
AR Van Buren County,5141,-92.515977,35.582959,"17,295",724.284
AR Washington County,5143,-94.218417,35.971209,"203,065",952.409
AR White County,5145,-91.753158,35.254722,"77,076","1,042.145"
AR Woodruff County,5147,-91.244418,35.189071,"7,260",594.014
AR Yell County,5149,-93.408303,34.997713,"22,185",948.857
CA Alameda County,6001,-121.913304,37.648081,"1,510,271",821.328
CA Alpine County,6003,-119.798999,38.61761,"1,175",743.180
CA Amador County,6005,-120.653856,38.44355,"38,091",605.956
CA Butte County,6007,-121.601919,39.665959,"220,000","1,677.131"
CA Calaveras County,6009,-120.555115,38.187844,"45,578","1,036.927"
CA Colusa County,6011,-122.237563,39.177739,"21,419","1,156.361"
CA Contra Costa County,6013,-121.951543,37.919479,"1,049,025",803.770
CA Del Norte County,6015,-123.980998,41.749903,"28,610","1,229.743"
CA El Dorado County,6017,-120.534398,38.785532,"181,058","1,786.356"
CA Fresno County,6019,-119.655019,36.761006,"930,450","6,011.202"
CA Glenn County,6021,-122.4017,39.602546,"28,122","1,326.978"
CA Humboldt County,6023,-123.925818,40.706673,"134,623","4,052.258"
CA Imperial County,6025,-115.355395,33.040816,"174,528","4,481.719"
CA Inyo County,6027,-117.403927,36.561977,"18,546","10,226.905"
CA Kern County,6029,-118.729506,35.346629,"839,631","8,162.641"
CA Kings County,6031,-119.81553,36.072478,"152,982","1,391.531"
CA Lake County,6033,-122.746757,39.094802,"64,665","1,329.423"
CA Lassen County,6035,-120.629931,40.721089,"34,895","4,720.119"
CA Los Angeles County,6037,-118.261862,34.196398,"9,818,605","4,750.942"
CA Madera County,6039,-119.749852,37.210039,"150,865","2,153.269"
CA Marin County,6041,-122.745974,38.051817,"252,409",828.192
CA Mariposa County,6043,-119.91286,37.570034,"18,251","1,462.820"
CA Mendocino County,6045,-123.442881,39.432388,"87,841","3,878.141"
CA Merced County,6047,-120.722802,37.194806,"255,793","1,978.509"
CA Modoc County,6049,-120.71837,41.592919,"9,686","4,203.399"
CA Mono County,6051,-118.875167,37.915836,"14,202","3,131.876"
CA Monterey County,6053,-121.315573,36.240107,"415,057","3,771.221"
CA Napa County,6055,-122.325995,38.507351,"136,484",788.582
CA Nevada County,6057,-120.773446,39.295191,"98,764",973.801
CA Orange County,6059,-117.777207,33.675687,"3,010,232",948.066
CA Placer County,6061,-120.722718,39.062032,"348,432","1,502.456"
CA Plumas County,6063,-120.829516,39.99517,"20,007","2,613.428"
CA Riverside County,6065,-116.002239,33.729828,"2,189,641","7,303.420"
CA Sacramento County,6067,-121.340441,38.450011,"1,418,788",994.018
CA San Benito County,6069,-121.085296,36.610702,"55,269","1,390.469"
CA San Bernardino County,6071,-116.181197,34.85722,"2,035,210","20,104.826"
CA San Diego County,6073,-116.776117,33.023604,"3,095,313","4,525.685"
CA San Francisco County,6075,-123.032229,37.727239,"805,235",231.889
CA San Joaquin County,6077,-121.272237,37.935034,"685,306","1,426.499"
CA San Luis Obispo County,6079,-120.44754,35.385227,"269,637","3,615.547"
CA San Mateo County,6081,-122.371542,37.414664,"718,451",740.959
CA Santa Barbara County,6083,-120.038485,34.537378,"423,895","3,789.078"
CA Santa Clara County,6085,-121.690622,37.220777,"1,781,642","1,304.067"
CA Santa Cruz County,6087,-122.007205,37.012488,"262,382",607.166
CA Shasta County,6089,-122.04355,40.760522,"177,223","3,847.422"
CA Sierra County,6091,-120.521993,39.576925,"3,240",962.210
CA Siskiyou County,6093,-122.533287,41.587986,"44,900","6,347.343"
CA Solano County,6095,-121.939594,38.267226,"413,344",906.192
CA Sonoma County,6097,-122.945194,38.532574,"483,878","1,767.947"
CA Stanislaus County,6099,-121.002656,37.562384,"514,453","1,514.687"
CA Sutter County,6101,-121.702758,39.035257,"94,737",608.490
CA Tehama County,6103,-122.232276,40.126156,"63,463","2,962.171"
CA Trinity County,6105,-123.114404,40.647724,"13,786","3,207.597"
CA Tulare County,6107,-118.780542,36.230453,"442,179","4,838.652"
CA Tuolumne County,6109,-119.964708,38.021451,"55,365","2,274.430"
CA Ventura County,6111,-119.133143,34.358742,"823,318","2,208.382"
CA Yolo County,6113,-121.903178,38.679268,"200,849","1,023.557"
CA Yuba County,6115,-121.34428,39.270026,"72,155",643.808
CO Adams County,8001,-104.331872,39.874325,"441,603","1,183.896"
CO Alamosa County,8003,-105.788041,37.568442,"15,445",723.341
CO Arapahoe County,8005,-104.331733,39.644632,"572,003",805.437
CO Archuleta County,8007,-107.050863,37.202395,"12,084","1,355.514"
CO Baca County,8009,-102.535457,37.303144,"3,788","2,557.339"
CO Bent County,8011,-103.077584,37.931891,"6,499","1,541.083"
CO Boulder County,8013,-105.398382,40.094826,"294,567",740.370
CO Broomfield County,8014,-105.052125,39.953383,"55,889",33.600
CO Chaffee County,8015,-106.316972,38.738246,"17,809","1,014.953"
CO Cheyenne County,8017,-102.604585,38.835387,"1,836","1,781.429"
CO Clear Creek County,8019,-105.670791,39.689403,"9,088",396.493
CO Conejos County,8021,-106.176447,37.213407,"8,256","1,290.957"
CO Costilla County,8023,-105.42894,37.277547,"3,524","1,230.361"
CO Crowley County,8025,-103.787562,38.321956,"5,823",800.329
CO Custer County,8027,-105.373515,38.101994,"4,255",739.924
CO Delta County,8029,-107.864757,38.861756,"30,952","1,148.599"
CO Denver County,8031,-104.880625,39.761849,"600,158",154.631
CO Dolores County,8033,-108.530383,37.747602,"2,064","1,068.100"
CO Douglas County,8035,-104.926199,39.326435,"285,465",842.869
CO Eagle County,8037,-106.692944,39.630638,"52,197","1,691.791"
CO Elbert County,8039,-104.117928,39.310817,"23,086","1,851.018"
CO El Paso County,8041,-104.527472,38.827383,"622,263","2,129.547"
CO Fremont County,8043,-105.421438,38.455658,"46,824","1,533.931"
CO Garfield County,8045,-107.90978,39.599352,"56,389","2,955.837"
CO Gilpin County,8047,-105.528947,39.861082,"5,441",150.260
CO Grand County,8049,-106.095876,40.123289,"14,843","1,869.593"
CO Gunnison County,8051,-107.078108,38.669679,"15,324","3,259.630"
CO Hinsdale County,8053,-107.383405,37.811625,843,"1,123.168"
CO Huerfano County,8055,-104.959928,37.687815,"6,711","1,593.237"
CO Jackson County,8057,-106.329248,40.663432,"1,394","1,620.962"
CO Jefferson County,8059,-105.245601,39.58646,"534,543",774.033
CO Kiowa County,8061,-102.75621,38.388466,"1,398","1,785.927"
CO Kit Carson County,8063,-102.603023,39.30534,"8,270","2,161.691"
CO Lake County,8065,-106.349696,39.204316,"7,310",383.909
CO La Plata County,8067,-107.839718,37.287367,"51,334","1,699.707"
CO Larimer County,8069,-105.482131,40.663091,"299,630","2,633.954"
CO Las Animas County,8071,-104.04411,37.318831,"15,507","4,775.348"
CO Lincoln County,8073,-103.507555,38.99374,"5,467","2,586.422"
CO Logan County,8075,-103.090464,40.728091,"22,709","1,844.865"
CO Mesa County,8077,-108.461837,39.019492,"146,723","3,341.123"
CO Mineral County,8079,-106.9323,37.651478,712,877.682
CO Moffat County,8081,-108.204521,40.573984,"13,795","4,750.912"
CO Montezuma County,8083,-108.595786,37.338025,"25,535","2,040.151"
CO Montrose County,8085,-108.263042,38.413427,"41,276","2,242.596"
CO Morgan County,8087,-103.807092,40.262354,"28,159","1,293.743"
CO Otero County,8089,-103.72126,37.88417,"18,831","1,269.703"
CO Ouray County,8091,-107.767133,38.1506,"4,436",542.211
CO Park County,8093,-105.717648,39.118914,"16,206","2,210.653"
CO Phillips County,8095,-102.345105,40.594712,"4,442",688.045
CO Pitkin County,8097,-106.915943,39.217533,"17,148",973.195
CO Prowers County,8099,-102.392161,37.958181,"12,551","1,644.323"
CO Pueblo County,8101,-104.489893,38.170658,"159,063","2,397.795"
CO Rio Blanco County,8103,-108.200685,39.972606,"6,666","3,222.814"
CO Rio Grande County,8105,-106.453214,37.485763,"11,982",912.338
CO Routt County,8107,-106.985289,40.48316,"23,509","2,368.136"
CO Saguache County,8109,-106.246675,38.033952,"6,108","3,170.245"
CO San Juan County,8111,-107.670257,37.781075,699,388.274
CO San Miguel County,8113,-108.427326,38.009374,"7,359","1,288.624"
CO Sedgwick County,8115,-102.355358,40.871568,"2,379",549.404
CO Summit County,8117,-106.137555,39.621023,"27,994",619.278
CO Teller County,8119,-105.182552,38.871994,"23,350",558.964
CO Washington County,8121,-103.209605,39.965413,"4,814","2,523.903"
CO Weld County,8123,-104.383649,40.555794,"252,825","4,016.796"
CO Yuma County,8125,-102.422649,40.000631,"10,043","2,368.704"
CT Fairfield [6] County,9001,-73.366757,41.228103,"916,829",836.923
CT Hartford [6] County,9003,-72.732916,41.806053,"894,014",750.624
CT Litchfield [6] County,9005,-73.235428,41.791897,"189,927",944.562
CT Middlesex [6] County,9007,-72.524227,41.434525,"165,676",439.063
CT New Haven [6] County,9009,-72.900204,41.349717,"862,477",862.057
CT New London [6] County,9011,-72.103452,41.47863,"274,055",771.699
CT Tolland [6] County,9013,-72.340977,41.858076,"152,691",417.047
CT Windham [6] County,9015,-71.990702,41.824999,"118,428",521.440
DE Kent County,10001,-75.502982,39.097088,"162,310",798.331
DE New Castle County,10003,-75.644132,39.575915,"538,479",494.003
DE Sussex County,10005,-75.335495,38.677511,"197,145","1,196.391"
DC District Of Columbia [7] County,11001,-77.017094,38.904149,"601,723",68.340
FL Alachua County,12001,-82.357221,29.67574,"247,336",968.808
FL Baker County,12003,-82.302284,30.324442,"27,115",588.971
FL Bay County,12005,-85.631348,30.237563,"168,852","1,033.153"
FL Bradford County,12007,-82.166796,29.946934,"28,520",300.489
FL Brevard County,12009,-80.700384,28.298276,"543,376","1,556.995"
FL Broward County,12011,-80.476658,26.19352,"1,748,066","1,322.862"
FL Calhoun County,12013,-85.197916,30.388801,"14,625",574.313
FL Charlotte County,12015,-81.940858,26.868826,"159,978",858.301
FL Citrus County,12017,-82.524796,28.843628,"141,236",773.294
FL Clay County,12019,-81.858147,29.987116,"190,865",643.548
FL Collier County,12021,-81.400884,26.118713,"321,520","2,305.015"
FL Columbia County,12023,-82.623127,30.221305,"67,531",801.328
FL Desoto County,12027,-81.806253,27.190581,"34,862",639.482
FL Dixie County,12029,-83.195666,29.580899,"16,422",863.650
FL Duval County,12031,-81.648113,30.335245,"864,263",918.452
FL Escambia County,12033,-87.33904,30.611664,"297,619",874.704
FL Flagler County,12035,-81.286362,29.474894,"95,696",570.825
FL Franklin County,12037,-84.799174,29.810176,"11,549","1,026.494"
FL Gadsden County,12039,-84.612783,30.57917,"46,389",528.528
FL Gilchrist County,12041,-82.795801,29.723456,"16,939",355.239
FL Glades County,12043,-81.19082,26.95481,"12,884",986.848
FL Gulf County,12045,-85.256537,29.907257,"15,863",755.561
FL Hamilton County,12047,-82.951049,30.491102,"14,799",519.056
FL Hardee County,12049,-81.82158,27.492846,"27,731",638.339
FL Hendry County,12051,-81.151584,26.53934,"39,140","1,189.996"
FL Hernando County,12053,-82.464835,28.567911,"172,778",589.022
FL Highlands County,12055,-81.340921,27.342627,"98,786","1,106.035"
FL Hillsborough County,12057,-82.349568,27.90659,"1,229,226","1,265.765"
FL Holmes County,12059,-85.812959,30.866222,"19,927",489.047
FL Indian River County,12061,-80.574803,27.700638,"138,028",617.006
FL Jackson County,12063,-85.210374,30.787812,"49,746",954.564
FL Jefferson County,12065,-83.890859,30.424558,"14,761",636.535
FL Lafayette County,12067,-83.17851,29.990066,"8,870",547.908
FL Lake County,12069,-81.712282,28.764113,"297,052","1,156.964"
FL Lee County,12071,-81.89225,26.552134,"618,754","1,212.461"
FL Leon County,12073,-84.2778,30.45931,"275,487",701.789
FL Levy County,12075,-82.783483,29.284409,"40,801","1,412.795"
FL Liberty County,12077,-84.868581,30.259849,"8,365",843.123
FL Madison County,12079,-83.470437,30.447228,"19,224",715.683
FL Manatee County,12081,-82.365784,27.481386,"322,833",892.679
FL Marion County,12083,-82.0431,29.202805,"331,298","1,662.610"
FL Martin County,12085,-80.398211,27.079954,"146,318",752.829
FL Miami-Dade County,12086,-80.499045,25.610494,"2,496,435","2,431.183"
FL Monroe County,12087,-81.206777,25.601043,"73,090","3,737.524"
FL Nassau County,12089,-81.764929,30.605926,"73,314",725.921
FL Okaloosa County,12091,-86.594194,30.665858,"180,822","1,082.078"
FL Okeechobee County,12093,-80.887388,27.385592,"39,996",891.907
FL Orange County,12095,-81.323295,28.514435,"1,145,956","1,003.260"
FL Osceola County,12097,-81.139312,28.059027,"268,685","1,505.906"
FL Palm Beach County,12099,-80.448673,26.645763,"1,320,134","2,383.009"
FL Pasco County,12101,-82.455707,28.302024,"464,697",868.454
FL Pinellas County,12103,-82.739518,27.903122,"916,542",608.127
FL Polk County,12105,-81.692783,27.953115,"602,095","2,010.551"
FL Putnam County,12107,-81.740894,29.606006,"74,364",826.921
FL Saint Johns County,12109,-81.383914,29.890593,"190,039",821.525
FL Saint Lucie County,12111,-80.443364,27.380775,"277,789",688.107
FL Santa Rosa County,12113,-87.014255,30.703633,"151,372","1,173.778"
FL Sarasota County,12115,-82.365835,27.184386,"379,448",725.344
FL Seminole County,12117,-81.13198,28.690079,"422,718",345.294
FL Sumter County,12119,-82.074715,28.714294,"93,420",579.826
FL Suwannee County,12121,-82.992754,30.189244,"41,551",692.256
FL Taylor County,12123,-83.616417,30.016943,"22,570","1,232.201"
FL Union County,12125,-82.366918,30.05428,"15,535",249.753
FL Volusia County,12127,-81.161813,29.057617,"494,593","1,432.436"
FL Wakulla County,12129,-84.375136,30.140378,"30,776",735.726
FL Walton County,12131,-86.176614,30.631211,"55,043","1,239.595"
FL Washington County,12133,-85.662797,30.602217,"24,896",615.954
GA Appling County,13001,-82.290103,31.739712,"18,236",512.261
GA Atkinson County,13003,-82.883614,31.300562,"8,375",344.534
GA Bacon County,13005,-82.387859,31.563327,"11,096",285.823
GA Baker County,13007,-84.454857,31.319622,"3,451",349.139
GA Baldwin County,13009,-83.255362,33.059532,"45,720",267.411
GA Banks County,13011,-83.498441,34.351922,"18,395",233.887
GA Barrow County,13013,-83.712303,33.992009,"69,367",162.941
GA Bartow County,13015,-84.838188,34.240918,"100,157",470.113
GA Ben Hill County,13017,-83.14719,31.740776,"17,634",253.908
GA Berrien County,13019,-83.231906,31.274308,"19,286",457.883
GA Bibb County,13021,-83.694193,32.808844,"155,547",255.366
GA Bleckley County,13023,-83.331717,32.435403,"13,063",219.132
GA Brantley County,13025,-81.982978,31.197334,"18,411",447.202
GA Brooks County,13027,-83.588971,30.833696,"16,243",497.801
GA Bryan County,13029,-81.438543,32.017969,"30,233",454.456
GA Bulloch County,13031,-81.74381,32.393408,"70,217",688.625
GA Burke County,13033,-82.00389,33.063737,"23,316",834.983
GA Butts County,13035,-83.958221,33.290355,"23,655",188.041
GA Calhoun County,13037,-84.62629,31.521279,"6,694",283.578
GA Camden County,13039,-81.636516,30.916358,"50,513",781.865
GA Candler County,13043,-82.071446,32.403986,"10,998",248.858
GA Carroll County,13045,-85.080527,33.582237,"110,527",503.836
GA Catoosa County,13047,-85.137353,34.899393,"63,942",162.460
GA Charlton County,13049,-82.139644,30.779904,"12,171",782.374
GA Chatham County,13051,-81.091768,31.974756,"265,128",632.263
GA Chattahoochee County,13053,-84.788021,32.347445,"11,267",251.166
GA Chattooga County,13055,-85.345289,34.474179,"26,015",313.558
GA Cherokee County,13057,-84.475057,34.244317,"214,346",434.406
GA Clarke County,13059,-83.36713,33.952234,"116,714",121.035
GA Clay County,13061,-84.992583,31.619831,"3,183",217.234
GA Clayton County,13063,-84.412977,33.552242,"259,424",144.332
GA Clinch County,13065,-82.702614,30.917653,"6,798",823.993
GA Cobb County,13067,-84.574166,33.93994,"688,078",344.518
GA Coffee County,13069,-82.844938,31.549245,"42,356",602.650
GA Colquitt County,13071,-83.769741,31.189758,"45,498",556.639
GA Columbia County,13073,-82.251342,33.550556,"124,053",307.605
GA Cook County,13075,-83.429552,31.152935,"17,212",233.203
GA Coweta County,13077,-84.762138,33.352897,"127,317",445.817
GA Crawford County,13079,-83.979182,32.709446,"12,630",326.453
GA Crisp County,13081,-83.753338,31.914753,"23,439",280.951
GA Dade County,13083,-85.506201,34.852424,"16,633",174.160
GA Dawson County,13085,-84.173284,34.442842,"22,330",214.409
GA Decatur County,13087,-84.577744,30.877961,"27,842",623.168
GA Dekalb County,13089,-84.226343,33.770661,"691,893",271.142
GA Dodge County,13091,-83.156818,32.160656,"21,796",503.114
GA Dooly County,13093,-83.807167,32.151995,"14,918",397.284
GA Dougherty County,13095,-84.214444,31.535068,"94,565",334.633
GA Douglas County,13097,-84.765944,33.699317,"132,403",201.026
GA Early County,13099,-84.906723,31.324191,"11,008",516.346
GA Echols County,13101,-82.836132,30.7085,"4,034",420.719
GA Effingham County,13103,-81.343337,32.361711,"52,250",482.931
GA Elbert County,13105,-82.842057,34.115017,"20,166",374.216
GA Emanuel County,13107,-82.299763,32.5911,"22,598",690.182
GA Evans County,13109,-81.887618,32.151902,"11,000",186.870
GA Fannin County,13111,-84.319287,34.863837,"23,682",391.960
GA Fayette County,13113,-84.493941,33.412717,"106,567",199.321
GA Floyd County,13115,-85.21373,34.263677,"96,317",518.466
GA Forsyth County,13117,-84.127336,34.225143,"175,511",247.166
GA Franklin County,13119,-83.227291,34.375155,"22,084",266.452
GA Fulton County,13121,-84.468182,33.790034,"920,581",534.325
GA Gilmer County,13123,-84.453984,34.690541,"28,292",431.246
GA Glascock County,13125,-82.606913,33.227491,"3,082",144.453
GA Glynn County,13127,-81.496517,31.212747,"79,626",585.248
GA Gordon County,13129,-84.873862,34.509667,"55,186",358.043
GA Grady County,13131,-84.244772,30.875863,"25,011",460.264
GA Greene County,13133,-83.167103,33.576836,"15,994",406.210
GA Gwinnett County,13135,-84.022938,33.959101,"805,321",436.775
GA Habersham County,13137,-83.526406,34.635108,"43,041",279.026
GA Hall County,13139,-83.818497,34.317588,"179,684",429.295
GA Hancock County,13141,-83.000465,33.26922,"9,429",478.681
GA Haralson County,13143,-85.220062,33.795165,"28,780",283.175
GA Harris County,13145,-84.912432,32.731549,"32,024",472.956
GA Hart County,13147,-82.96329,34.348733,"25,213",256.948
GA Heard County,13149,-85.139594,33.290968,"11,834",301.094
GA Henry County,13151,-84.15444,33.452881,"203,922",326.547
GA Houston County,13153,-83.662856,32.458381,"139,900",379.921
GA Irwin County,13155,-83.277037,31.604306,"9,538",362.763
GA Jackson County,13157,-83.565133,34.134157,"60,485",343.099
GA Jasper County,13159,-83.687892,33.314905,"13,900",373.465
GA Jeff Davis County,13161,-82.636825,31.811615,"15,068",335.398
GA Jefferson County,13163,-82.41905,33.051874,"16,930",529.667
GA Jenkins County,13165,-81.971524,32.794563,"8,340",352.473
GA Johnson County,13167,-82.661354,32.689831,"9,980",306.592
GA Jones County,13169,-83.562339,33.020226,"28,669",395.417
GA Lamar County,13171,-84.146721,33.07446,"18,317",185.834
GA Lanier County,13173,-83.063164,31.038197,"10,078",199.788
GA Laurens County,13175,-82.926317,32.39322,"48,434",818.471
GA Lee County,13177,-84.146681,31.818419,"28,298",361.733
GA Liberty County,13179,-81.457969,31.807245,"63,453",602.527
GA Lincoln County,13181,-82.448299,33.792151,"7,996",257.298
GA Long County,13183,-81.74287,31.749563,"14,464",403.813
GA Lowndes County,13185,-83.268967,30.83368,"109,233",510.575
GA Lumpkin County,13187,-83.998828,34.568149,"29,966",284.197
GA Mcduffie County,13189,-82.473188,33.482464,"21,875",266.388
GA Mcintosh County,13191,-81.370199,31.482978,"14,333",573.893
GA Macon County,13193,-84.052162,32.366216,"14,740",405.992
GA Madison County,13195,-83.203637,34.128486,"28,120",285.588
GA Marion County,13197,-84.529561,32.359538,"8,742",367.480
GA Meriwether County,13199,-84.663279,33.03022,"21,992",505.406
GA Miller County,13201,-84.730386,31.162908,"6,125",283.663
GA Mitchell County,13205,-84.192407,31.22894,"23,498",513.824
GA Monroe County,13207,-83.922938,33.017435,"26,424",397.811
GA Montgomery County,13209,-82.533349,32.172108,"9,123",244.692
GA Morgan County,13211,-83.492324,33.593732,"17,868",354.620
GA Murray County,13213,-84.73799,34.797097,"39,628",346.662
GA Muscogee County,13215,-84.874946,32.510197,"189,885",221.006
GA Newton County,13217,-83.855189,33.544046,"99,958",279.198
GA Oconee County,13219,-83.437728,33.834125,"32,808",186.372
GA Oglethorpe County,13221,-83.074081,33.866806,"14,899",442.039
GA Paulding County,13223,-84.866979,33.920903,"142,324",314.342
GA Peach County,13225,-83.831978,32.571324,"27,695",151.300
GA Pickens County,13227,-84.490256,34.456621,"29,431",232.712
GA Pierce County,13229,-82.210427,31.353988,"18,758",343.230
GA Pike County,13231,-84.386627,33.090769,"17,869",219.405
GA Polk County,13233,-85.186826,33.995961,"41,475",312.140
GA Pulaski County,13235,-83.481855,32.238794,"12,010",251.207
GA Putnam County,13237,-83.37179,33.321061,"21,218",360.687
GA Quitman County,13239,-85.009317,31.861487,"2,513",160.565
GA Rabun County,13241,-83.404735,34.883026,"16,276",376.883
GA Randolph County,13243,-84.752311,31.762651,"7,719",430.873
GA Richmond County,13245,-82.074998,33.361487,"200,549",328.591
GA Rockdale County,13247,-84.02637,33.652081,"85,215",132.098
GA Schley County,13249,-84.322724,32.263441,"5,010",167.824
GA Screven County,13251,-81.617585,32.744751,"14,593",655.869
GA Seminole County,13253,-84.867592,30.933894,"8,729",256.556
GA Spalding County,13255,-84.286067,33.262389,"64,073",199.591
GA Stephens County,13257,-83.290216,34.552914,"26,175",184.197
GA Stewart County,13259,-84.834912,32.073225,"6,058",463.612
GA Sumter County,13261,-84.204283,32.042203,"32,819",492.654
GA Talbot County,13263,-84.530029,32.704603,"6,865",394.762
GA Taliaferro County,13265,-82.875208,33.559314,"1,717",195.348
GA Tattnall County,13267,-82.059208,32.043768,"25,520",488.349
GA Taylor County,13269,-84.251426,32.554667,"8,906",379.699
GA Telfair County,13271,-82.931062,31.913639,"16,500",444.008
GA Terrell County,13273,-84.439446,31.777191,"9,315",337.703
GA Thomas County,13275,-83.919783,30.864616,"44,720",552.219
GA Tift County,13277,-83.525931,31.457003,"40,118",268.790
GA Toombs County,13279,-82.332071,32.126698,"27,223",370.993
GA Towns County,13281,-83.732158,34.90265,"10,471",171.983
GA Treutlen County,13283,-82.570882,32.409586,"6,885",202.450
GA Troup County,13285,-85.02836,33.034482,"67,044",445.962
GA Turner County,13287,-83.628567,31.718232,"8,930",289.980
GA Twiggs County,13289,-83.425879,32.665847,"9,023",362.634
GA Union County,13291,-83.989573,34.83377,"21,356",329.004
GA Upson County,13293,-84.292281,32.881837,"27,153",327.554
GA Walker County,13295,-85.305385,34.735827,"68,756",447.025
GA Walton County,13297,-83.734215,33.782649,"83,768",330.000
GA Ware County,13299,-82.421507,31.050881,"36,312",907.988
GA Warren County,13301,-82.688012,33.419169,"5,834",286.688
GA Washington County,13303,-82.798112,32.971848,"21,187",684.356
GA Wayne County,13305,-81.912376,31.547845,"30,099",648.796
GA Webster County,13307,-84.553218,32.046554,"2,799",210.263
GA Wheeler County,13309,-82.738701,32.109276,"7,421",300.268
GA White County,13311,-83.743713,34.643677,"27,144",242.207
GA Whitfield County,13313,-84.968541,34.801726,"102,599",291.055
GA Wilcox County,13315,-83.438262,31.962717,"9,255",382.124
GA Wilkes County,13317,-82.747922,33.77904,"10,593",474.094
GA Wilkinson County,13319,-83.175587,32.804321,"9,563",451.950
GA Worth County,13321,-83.84996,31.551773,"21,679",574.755
HI HawaiʻI County,15001,-155.502443,19.597764,"185,079","5,086.133"
HI Honolulu County,15003,-158.201976,21.461364,"953,207","2,128.071"
HI Kalawao [8] County,15005,-156.97401,21.218764,90,52.829
HI KauaʻI County,15007,-159.705965,22.012038,"67,091","1,266.359"
HI Maui County,15009,-156.60155,20.855931,"154,834","2,398.329"
ID Ada County,16001,-116.244456,43.447861,"392,365","1,060.462"
ID Adams County,16003,-116.431873,44.884583,"3,976","1,369.771"
ID Bannock County,16005,-112.228986,42.692939,"82,839","1,147.432"
ID Bear Lake County,16007,-111.327445,42.285833,"5,986","1,049.408"
ID Benewah County,16009,-116.633541,47.218451,"9,285",783.948
ID Bingham County,16011,-112.399206,43.216357,"45,607","2,120.406"
ID Blaine County,16013,-113.95529,43.394482,"21,376","2,660.706"
ID Boise County,16015,-115.715111,43.987275,"7,028","1,906.686"
ID Bonner County,16017,-116.59694,48.312512,"40,877","1,919.499"
ID Bonneville County,16019,-111.621878,43.395171,"104,234","1,900.636"
ID Boundary County,16021,-116.524619,48.773065,"10,972","1,277.858"
ID Butte County,16023,-113.177627,43.6851,"2,891","2,233.697"
ID Camas County,16025,-114.804427,43.463396,"1,117","1,078.947"
ID Canyon County,16027,-116.708527,43.623051,"188,923",603.548
ID Caribou County,16029,-111.544172,42.786273,"6,963","1,798.575"
ID Cassia County,16031,-113.605498,42.288635,"22,952","2,580.282"
ID Clark County,16033,-112.36112,44.286251,982,"1,765.141"
ID Clearwater County,16035,-115.6535,46.67257,"8,761","2,487.986"
ID Custer County,16037,-114.252251,44.273341,"4,368","4,937.306"
ID Elmore County,16039,-115.470751,43.394826,"27,038","3,100.755"
ID Franklin County,16041,-111.822955,42.173589,"12,786",668.344
ID Fremont County,16043,-111.484429,44.218091,"13,242","1,895.684"
ID Gem County,16045,-116.398784,44.061473,"16,719",565.705
ID Gooding County,16047,-114.82142,42.973185,"15,464",733.718
ID Idaho County,16049,-115.467376,45.849237,"16,267","8,503.350"
ID Jefferson County,16051,-112.318588,43.796965,"26,140","1,105.574"
ID Jerome County,16053,-114.263009,42.691172,"22,374",602.152
ID Kootenai County,16055,-116.694918,47.677113,"138,494","1,315.623"
ID Latah County,16057,-116.730974,46.81892,"37,244","1,076.912"
ID Lemhi County,16059,-113.887841,44.928789,"7,936","4,568.752"
ID Lewis County,16061,-116.42376,46.236328,"3,821",479.739
ID Lincoln County,16063,-114.153899,42.986181,"5,208","1,205.887"
ID Madison County,16065,-111.65655,43.789709,"37,536",473.226
ID Minidoka County,16067,-113.64001,42.856937,"20,069",762.927
ID Nez Perce County,16069,-116.760903,46.333766,"39,265",856.282
ID Oneida County,16071,-112.520465,42.18389,"4,286","1,201.604"
ID Owyhee County,16073,-116.142655,42.593063,"11,526","7,696.982"
ID Payette County,16075,-116.748655,44.00274,"22,623",410.275
ID Power County,16077,-112.844407,42.694126,"7,817","1,442.666"
ID Shoshone County,16079,-115.885092,47.347694,"12,765","2,635.123"
ID Teton County,16081,-111.211765,43.760994,"10,170",450.560
ID Twin Falls County,16083,-114.665639,42.352309,"77,230","1,928.324"
ID Valley County,16085,-115.637875,44.771532,"9,862","3,732.961"
ID Washington County,16087,-116.79783,44.448213,"10,198","1,473.528"
IL Adams County,17001,-91.194961,39.986053,"67,103",871.338
IL Alexander County,17003,-89.349506,37.183683,"8,238",252.601
IL Bond County,17005,-89.436592,38.885924,"17,768",382.760
IL Boone County,17007,-88.824295,42.318983,"54,165",282.024
IL Brown County,17009,-90.75031,39.962069,"6,937",307.205
IL Bureau County,17011,-89.528377,41.401304,"34,978",873.503
IL Calhoun County,17013,-90.666295,39.164262,"5,089",283.577
IL Carroll County,17015,-89.926485,42.059084,"15,387",466.360
IL Cass County,17017,-90.245705,39.969202,"13,642",383.765
IL Champaign County,17019,-88.197201,40.13915,"201,081",998.393
IL Christian County,17021,-89.279593,39.545524,"34,800",715.640
IL Clark County,17023,-87.791687,39.332364,"16,335",504.818
IL Clay County,17025,-88.483789,38.747312,"13,815",469.592
IL Clinton County,17027,-89.423136,38.606423,"37,762",503.271
IL Coles County,17029,-88.220782,39.51368,"53,873",510.077
IL Cook County,17031,-87.645455,41.894294,"5,194,675","1,634.859"
IL Crawford County,17033,-87.757172,39.00373,"19,817",445.818
IL Cumberland County,17035,-88.240619,39.273121,"11,048",347.003
IL Dekalb County,17037,-88.768991,41.894613,"105,160",634.660
IL De Witt County,17039,-88.901853,40.181499,"16,561",405.084
IL Douglas County,17041,-88.222866,39.766078,"19,980",417.224
IL Dupage County,17043,-88.086038,41.852058,"916,924",336.412
IL Edgar County,17045,-87.74711,39.679037,"18,576",623.996
IL Edwards County,17047,-88.047941,38.417095,"6,721",222.721
IL Effingham County,17049,-88.592786,39.047694,"34,242",480.006
IL Fayette County,17051,-89.017923,39.001125,"22,140",725.343
IL Ford County,17053,-88.224746,40.594423,"14,081",486.242
IL Franklin County,17055,-88.926246,37.991848,"39,561",431.444
IL Fulton County,17057,-90.206793,40.465688,"37,069",882.574
IL Gallatin County,17059,-88.227964,37.768677,"5,589",328.182
IL Greene County,17061,-90.387757,39.355444,"13,886",546.272
IL Grundy County,17063,-88.401055,41.29241,"50,063",430.447
IL Hamilton County,17065,-88.539005,38.085226,"8,457",435.891
IL Hancock County,17067,-91.167988,40.405792,"19,104",814.396
IL Hardin County,17069,-88.266148,37.517852,"4,320",181.579
IL Henderson County,17071,-90.93848,40.815141,"7,331",395.220
IL Henry County,17073,-90.130838,41.350021,"50,486",825.643
IL Iroquois County,17075,-87.833601,40.748867,"29,718","1,118.927"
IL Jackson County,17077,-89.381212,37.786096,"60,218",602.379
IL Jasper County,17079,-88.150763,39.004874,"9,698",498.120
IL Jefferson County,17081,-88.92421,38.30078,"38,827",583.784
IL Jersey County,17083,-90.361365,39.080192,"22,985",377.128
IL Jo Daviess County,17085,-90.211471,42.362391,"22,678",618.728
IL Johnson County,17087,-88.882962,37.460815,"12,582",348.864
IL Kane County,17089,-88.42804,41.939594,"515,269",524.201
IL Kankakee County,17091,-87.861125,41.139494,"113,449",681.364
IL Kendall County,17093,-88.430626,41.58814,"114,736",322.320
IL Knox County,17095,-90.213761,40.930941,"52,919",719.812
IL Lake County,17097,-87.436118,42.326444,"703,462","1,368.479"
IL La Salle County,17099,-88.885931,41.343341,"113,924","1,148.136"
IL Lawrence County,17101,-87.730221,38.718954,"16,833",374.139
IL Lee County,17103,-89.299351,41.747442,"36,031",728.953
IL Livingston County,17105,-88.552852,40.894376,"38,950","1,045.927"
IL Logan County,17107,-89.365308,40.12907,"30,305",618.927
IL Mcdonough County,17109,-90.677579,40.455789,"32,612",590.184
IL Mchenry County,17111,-88.452245,42.324298,"308,760",610.813
IL Mclean County,17113,-88.844539,40.494559,"169,572","1,186.270"
IL Macon County,17115,-88.961529,39.860237,"110,768",585.865
IL Macoupin County,17117,-89.926344,39.2659,"47,765",867.650
IL Madison County,17119,-89.900195,38.827082,"269,282",740.562
IL Marion County,17121,-88.920221,38.648396,"39,437",576.036
IL Marshall County,17123,-89.342371,41.031119,"12,640",398.514
IL Mason County,17125,-89.913575,40.236993,"14,666",563.464
IL Massac County,17127,-88.705658,37.216119,"15,429",241.814
IL Menard County,17129,-89.794133,40.022569,"12,705",315.457
IL Mercer County,17131,-90.741433,41.204791,"16,434",568.694
IL Monroe County,17133,-90.179078,38.277983,"32,957",398.036
IL Montgomery County,17135,-89.478007,39.228092,"30,104",709.677
IL Morgan County,17137,-90.202277,39.716806,"35,547",572.297
IL Moultrie County,17139,-88.625726,39.636896,"14,846",344.477
IL Ogle County,17141,-89.320176,42.041884,"53,497",762.985
IL Peoria County,17143,-89.767358,40.785999,"186,494",630.599
IL Perry County,17145,-89.368487,38.084385,"22,350",446.953
IL Piatt County,17147,-88.592328,40.009056,"16,729",439.462
IL Pike County,17149,-90.889034,39.625106,"16,430",848.884
IL Pope County,17151,-88.542374,37.417169,"4,470",374.302
IL Pulaski County,17153,-89.127755,37.215615,"6,161",203.229
IL Putnam County,17155,-89.298386,41.19894,"6,006",172.224
IL Randolph County,17157,-89.82121,38.056515,"33,476",597.205
IL Richland County,17159,-88.085698,38.71155,"16,233",361.896
IL Rock Island County,17161,-90.572203,41.468404,"147,546",451.288
IL Saint Clair County,17163,-89.928546,38.470198,"270,056",674.033
IL Saline County,17165,-88.545031,37.751653,"24,913",386.780
IL Sangamon County,17167,-89.662311,39.756378,"197,465",877.019
IL Schuyler County,17169,-90.613464,40.156905,"7,544",441.332
IL Scott County,17171,-90.477759,39.63698,"5,355",252.771
IL Shelby County,17173,-88.798862,39.384926,"22,363",768.070
IL Stark County,17175,-89.797411,41.096908,"5,994",288.353
IL Stephenson County,17177,-89.665994,42.349726,"47,711",565.058
IL Tazewell County,17179,-89.51626,40.508074,"135,394",657.936
IL Union County,17181,-89.252875,37.475104,"17,808",422.148
IL Vermilion County,17183,-87.726772,40.18674,"81,625",901.277
IL Wabash County,17185,-87.839167,38.445821,"11,947",227.506
IL Warren County,17187,-90.620223,40.850441,"17,707",543.051
IL Washington County,17189,-89.417187,38.353141,"14,716",563.906
IL Wayne County,17191,-88.432129,38.431948,"16,760",715.486
IL White County,17193,-88.178585,38.087372,"14,665",501.861
IL Whiteside County,17195,-89.910957,41.750571,"58,498",696.527
IL Will County,17197,-87.978456,41.448474,"677,560",849.226
IL Williamson County,17199,-88.930018,37.730353,"66,357",444.352
IL Winnebago County,17201,-89.161205,42.337396,"295,266",519.250
IL Woodford County,17203,-89.210301,40.789596,"38,664",542.642
IN Adams County,18001,-84.936131,40.745733,"34,387",339.966
IN Allen County,18003,-85.07223,41.091855,"355,329",660.022
IN Bartholomew County,18005,-85.897999,39.205843,"76,794",409.525
IN Benton County,18007,-87.315479,40.608253,"8,854",406.509
IN Blackford County,18009,-85.32373,40.472672,"12,766",165.583
IN Boone County,18011,-86.469014,40.050892,"56,640",423.252
IN Brown County,18013,-86.23941,39.192585,"15,242",316.631
IN Carroll County,18015,-86.565141,40.58498,"20,155",375.019
IN Cass County,18017,-86.355169,40.753799,"38,966",414.848
IN Clark County,18019,-85.711122,38.476217,"110,232",376.451
IN Clay County,18021,-87.115837,39.393951,"26,890",360.322
IN Clinton County,18023,-86.477567,40.305944,"33,224",405.248
IN Crawford County,18025,-86.440871,38.289433,"10,713",308.719
IN Daviess County,18027,-87.076988,38.696155,"31,648",436.874
IN Dearborn County,18029,-84.97346,39.151491,"50,047",307.416
IN Decatur County,18031,-85.499831,39.30598,"25,740",373.323
IN Dekalb County,18033,-85.000185,41.401189,"42,223",363.850
IN Delaware County,18035,-85.398856,40.227165,"117,671",395.909
IN Dubois County,18037,-86.873385,38.373344,"41,889",435.333
IN Elkhart County,18039,-85.863986,41.600693,"197,559",467.970
IN Fayette County,18041,-85.185032,39.639655,"24,277",215.162
IN Floyd County,18043,-85.911474,38.317937,"74,578",148.958
IN Fountain County,18045,-87.234806,40.121282,"17,240",397.880
IN Franklin County,18047,-85.066964,39.409762,"23,087",391.050
IN Fulton County,18049,-86.265006,41.050384,"20,836",371.265
IN Gibson County,18051,-87.580566,38.317413,"33,503",499.165
IN Grant County,18053,-85.654946,40.515758,"70,061",414.898
IN Greene County,18055,-87.005245,39.0486,"33,165",545.918
IN Hamilton County,18057,-86.020586,40.04987,"274,569",402.437
IN Hancock County,18059,-85.772904,39.822604,"70,002",307.025
IN Harrison County,18061,-86.103681,38.18644,"39,364",486.521
IN Hendricks County,18063,-86.510287,39.768749,"145,448",408.777
IN Henry County,18065,-85.397338,39.929576,"49,462",394.832
IN Howard County,18067,-86.114118,40.483537,"82,752",293.922
IN Huntington County,18069,-85.478598,40.826394,"37,124",387.722
IN Jackson County,18071,-86.042516,38.911957,"42,376",513.913
IN Jasper County,18073,-87.118814,41.017688,"33,478",561.386
IN Jay County,18075,-85.00338,40.434972,"21,253",384.082
IN Jefferson County,18077,-85.44009,38.783604,"32,428",362.889
IN Jennings County,18079,-85.628111,38.996234,"28,525",378.345
IN Johnson County,18081,-86.0946,39.495986,"139,654",321.790
IN Knox County,18083,-87.420182,38.688663,"38,440",524.045
IN Kosciusko County,18085,-85.861575,41.244293,"77,358",554.393
IN Lagrange County,18087,-85.426302,41.642468,"37,128",386.702
IN Lake County,18089,-87.374337,41.472239,"496,005",626.560
IN Laporte County,18091,-86.744729,41.549011,"111,467",613.259
IN Lawrence County,18093,-86.48782,38.839815,"46,134",451.929
IN Madison County,18095,-85.722454,40.166203,"131,636",452.904
IN Marion County,18097,-86.135794,39.782976,"903,393",403.008
IN Marshall County,18099,-86.269036,41.325003,"47,051",449.743
IN Martin County,18101,-86.801847,38.705322,"10,334",340.406
IN Miami County,18103,-86.044259,40.772881,"36,903",377.388
IN Monroe County,18105,-86.523325,39.160751,"137,974",411.321
IN Montgomery County,18107,-86.892715,40.040296,"38,124",505.445
IN Morgan County,18109,-86.447457,39.482646,"68,894",409.427
IN Newton County,18111,-87.402172,40.962399,"14,244",403.438
IN Noble County,18113,-85.41785,41.400794,"47,536",417.433
IN Ohio County,18115,-84.964299,38.940527,"6,128",87.434
IN Orange County,18117,-86.489257,38.547381,"19,840",408.192
IN Owen County,18119,-86.838845,39.317339,"21,575",387.825
IN Parke County,18121,-87.19695,39.77425,"17,339",449.979
IN Perry County,18123,-86.62654,38.081436,"19,338",386.290
IN Pike County,18125,-87.232532,38.397898,"12,845",341.094
IN Porter County,18127,-87.071308,41.509922,"164,343",521.781
IN Posey County,18129,-87.868653,38.027614,"25,910",419.325
IN Pulaski County,18131,-86.692538,41.045272,"13,402",434.534
IN Putnam County,18133,-86.853325,39.665545,"37,963",482.692
IN Randolph County,18135,-85.005004,40.164414,"26,171",453.314
IN Ripley County,18137,-85.260541,39.10023,"28,818",448.062
IN Rush County,18139,-85.466527,39.622312,"17,392",408.461
IN Saint Joseph County,18141,-86.288159,41.617699,"266,931",461.385
IN Scott County,18143,-85.751898,38.679431,"24,181",192.748
IN Shelby County,18145,-85.792174,39.524135,"44,436",412.756
IN Spencer County,18147,-87.010645,38.009789,"20,952",401.426
IN Starke County,18149,-86.64757,41.28322,"23,363",312.206
IN Steuben County,18151,-85.002467,41.643437,"34,185",322.466
IN Sullivan County,18153,-87.415843,39.089225,"21,475",454.116
IN Switzerland County,18155,-85.029679,38.825846,"10,613",223.439
IN Tippecanoe County,18157,-86.893943,40.38926,"172,780",503.243
IN Tipton County,18159,-86.056207,40.310229,"15,936",260.567
IN Union County,18161,-84.925152,39.623111,"7,516",165.177
IN Vanderburgh County,18163,-87.586166,38.02007,"179,703",236.330
IN Vermillion County,18165,-87.462071,39.854045,"16,212",259.930
IN Vigo County,18167,-87.390375,39.429143,"107,848",410.451
IN Wabash County,18169,-85.795175,40.843717,"32,888",420.975
IN Warren County,18171,-87.375847,40.352658,"8,508",366.405
IN Warrick County,18173,-87.272023,38.097764,"59,689",391.053
IN Washington County,18175,-86.104751,38.600613,"28,262",516.599
IN Wayne County,18177,-85.006735,39.863091,"68,917",404.341
IN Wells County,18179,-85.212974,40.735273,"27,636",370.248
IN White County,18181,-86.864293,40.75095,"24,643",508.680
IN Whitley County,18183,-85.501892,41.136426,"33,292",337.914
IA Adair County,19001,-94.478164,41.328528,"7,682",570.274
IA Adams County,19003,-94.696906,41.021656,"4,029",425.506
IA Allamakee County,19005,-91.382751,43.274964,"14,330",658.771
IA Appanoose County,19007,-92.870345,40.744683,"12,887",516.243
IA Audubon County,19009,-94.904312,41.679178,"6,119",443.406
IA Benton County,19011,-92.05763,42.092547,"26,076",718.489
IA Black Hawk County,19013,-92.306059,42.472888,"131,090",572.680
IA Boone County,19015,-93.939138,42.038601,"26,306",573.640
IA Bremer County,19017,-92.327586,42.78089,"24,276",439.404
IA Buchanan County,19019,-91.838666,42.470328,"20,958",573.116
IA Buena Vista County,19021,-95.141433,42.741522,"20,260",580.227
IA Butler County,19023,-92.780066,42.734708,"14,867",581.756
IA Calhoun County,19025,-94.643683,42.38617,"9,670",572.115
IA Carroll County,19027,-94.867647,42.039492,"20,816",570.265
IA Cass County,19029,-94.933302,41.333824,"13,956",564.948
IA Cedar County,19031,-91.13219,41.772355,"18,499",581.902
IA Cerro Gordo County,19033,-93.251266,43.075171,"44,151",575.119
IA Cherokee County,19035,-95.633262,42.742738,"12,072",577.069
IA Chickasaw County,19037,-92.31721,43.059741,"12,439",505.658
IA Clarke County,19039,-93.784096,41.029191,"9,286",431.756
IA Clay County,19041,-95.149726,43.079822,"16,667",572.592
IA Clayton County,19043,-91.323511,42.840998,"18,129",792.665
IA Clinton County,19045,-90.534243,41.898073,"49,116",710.175
IA Crawford County,19047,-95.38909,42.043119,"17,096",715.037
IA Dallas County,19049,-94.040707,41.685321,"66,135",591.699
IA Davis County,19051,-92.410345,40.748089,"8,753",504.854
IA Decatur County,19053,-93.78458,40.736379,"8,457",533.480
IA Delaware County,19055,-91.359443,42.473003,"17,764",578.946
IA Des Moines County,19057,-91.186925,40.915339,"40,325",429.750
IA Dickinson County,19059,-95.196057,43.389611,"16,667",403.962
IA Dubuque County,19061,-90.878771,42.463481,"93,653",616.633
IA Emmet County,19063,-94.66937,43.377984,"10,302",402.523
IA Fayette County,19065,-91.839373,42.86445,"20,880",731.326
IA Floyd County,19067,-92.787367,43.052741,"16,303",501.382
IA Franklin County,19069,-93.271425,42.736549,"10,680",582.524
IA Fremont County,19071,-95.599516,40.743726,"7,441",516.638
IA Greene County,19073,-94.388703,42.042494,"9,336",571.215
IA Grundy County,19075,-92.790261,42.403323,"12,453",501.894
IA Guthrie County,19077,-94.501272,41.683573,"10,954",593.074
IA Hamilton County,19079,-93.709198,42.390768,"15,673",577.510
IA Hancock County,19081,-93.743697,43.075411,"11,341",573.038
IA Hardin County,19083,-93.241081,42.389955,"17,534",569.992
IA Harrison County,19085,-95.827149,41.688584,"14,928",701.643
IA Henry County,19087,-91.54427,40.985864,"20,145",436.560
IA Howard County,19089,-92.321908,43.365313,"9,566",473.606
IA Humboldt County,19091,-94.202775,42.782221,"9,815",435.667
IA Ida County,19093,-95.507421,42.39186,"7,089",432.051
IA Iowa County,19095,-92.059123,41.683918,"16,355",587.494
IA Jackson County,19097,-90.574597,42.164281,"19,848",649.607
IA Jasper County,19099,-93.052971,41.685686,"36,842",732.955
IA Jefferson County,19101,-91.967137,41.00688,"16,843",436.876
IA Johnson County,19103,-91.588812,41.668737,"130,882",623.150
IA Jones County,19105,-91.116914,42.125118,"20,638",577.004
IA Keokuk County,19107,-92.167721,41.331182,"10,511",579.924
IA Kossuth County,19109,-94.213983,43.212478,"15,543",974.324
IA Lee County,19111,-91.477157,40.647588,"35,862",538.867
IA Linn County,19113,-91.597674,42.077951,"211,226",724.505
IA Louisa County,19115,-91.256994,41.218211,"11,387",417.518
IA Lucas County,19117,-93.331467,41.033344,"8,898",434.397
IA Lyon County,19119,-96.207201,43.38358,"11,581",587.779
IA Madison County,19121,-94.015184,41.330622,"15,679",562.158
IA Mahaska County,19123,-92.636366,41.330797,"22,381",573.398
IA Marion County,19125,-93.093849,41.331455,"33,309",570.509
IA Marshall County,19127,-92.981452,42.041691,"40,648",573.197
IA Mills County,19129,-95.619101,41.033703,"15,059",440.644
IA Mitchell County,19131,-92.784466,43.348564,"10,776",469.565
IA Monona County,19133,-95.956566,42.049432,"9,243",698.934
IA Monroe County,19135,-92.869642,41.028847,"7,970",434.303
IA Montgomery County,19137,-95.15779,41.021735,"10,740",425.028
IA Muscatine County,19139,-91.118699,41.483776,"42,745",449.129
IA O'Brien County,19141,-95.625624,43.083746,"14,398",573.208
IA Osceola County,19143,-95.633788,43.378542,"6,462",399.393
IA Page County,19145,-95.14429,40.73909,"15,932",535.467
IA Palo Alto County,19147,-94.667297,43.075854,"9,421",569.435
IA Plymouth County,19149,-96.215864,42.737585,"24,986",863.734
IA Pocahontas County,19151,-94.678279,42.734033,"7,310",578.657
IA Polk County,19153,-93.56972,41.684281,"430,640",591.535
IA Pottawattamie County,19155,-95.544905,41.340184,"93,158",959.132
IA Poweshiek County,19157,-92.522882,41.684526,"18,914",586.067
IA Ringgold County,19159,-94.244251,40.735334,"5,131",538.865
IA Sac County,19161,-95.105224,42.387526,"10,350",578.331
IA Scott County,19163,-90.62229,41.641679,"165,224",468.211
IA Shelby County,19165,-95.308917,41.679014,"12,167",591.353
IA Sioux County,19167,-96.177929,43.082854,"33,704",768.991
IA Story County,19169,-93.466093,42.037538,"89,542",573.649
IA Tama County,19171,-92.529412,42.074848,"17,767",722.080
IA Taylor County,19173,-94.697108,40.737949,"6,317",534.656
IA Union County,19175,-94.245091,41.02855,"12,534",425.798
IA Van Buren County,19177,-91.952943,40.754117,"7,570",490.519
IA Wapello County,19179,-92.409482,41.031263,"35,625",436.021
IA Warren County,19181,-93.564366,41.336769,"46,225",573.350
IA Washington County,19183,-91.725052,41.329401,"21,704",570.920
IA Wayne County,19185,-93.332613,40.739983,"6,403",527.152
IA Webster County,19187,-94.179157,42.434397,"38,013",718.429
IA Winnebago County,19189,-93.743488,43.378124,"10,866",401.718
IA Winneshiek County,19191,-91.850788,43.292989,"21,056",690.138
IA Woodbury County,19193,-96.053296,42.39322,"102,172",877.774
IA Worth County,19195,-93.248533,43.373491,"7,598",401.941
IA Wright County,19197,-93.734735,42.733007,"13,229",582.238
KS Allen County,20001,-95.300945,37.884229,"13,371",505.325
KS Anderson County,20003,-95.292046,38.215114,"8,102",583.734
KS Atchison County,20005,-95.313398,39.532544,"16,924",433.820
KS Barber County,20007,-98.685052,37.222906,"4,861","1,136.166"
KS Barton County,20009,-98.767837,38.481239,"27,674",900.634
KS Bourbon County,20011,-94.850928,37.8561,"15,173",639.092
KS Brown County,20013,-95.569905,39.825931,"9,984",572.106
KS Butler County,20015,-96.838762,37.773681,"65,880","1,446.527"
KS Chase County,20017,-96.594064,38.298553,"2,790",777.727
KS Chautauqua County,20019,-96.245396,37.154259,"3,669",644.767
KS Cherokee County,20021,-94.845698,37.169392,"21,603",591.023
KS Cheyenne County,20023,-101.727302,39.789256,"2,726","1,020.944"
KS Clark County,20025,-99.813869,37.233831,"2,215",977.182
KS Clay County,20027,-97.168853,39.344964,"8,535",655.600
KS Cloud County,20029,-97.64139,39.487329,"9,533",717.991
KS Coffey County,20031,-95.729137,38.23645,"8,601",654.094
KS Comanche County,20033,-99.254089,37.189071,"1,891",789.690
KS Cowley County,20035,-96.837247,37.234507,"36,311","1,132.426"
KS Crawford County,20037,-94.853941,37.505628,"39,134",595.011
KS Decatur County,20039,-100.459708,39.783542,"2,961",894.147
KS Dickinson County,20041,-97.157943,38.867735,"19,754",851.950
KS Doniphan County,20043,-95.147225,39.788502,"7,945",398.276
KS Douglas County,20045,-95.290529,38.896573,"110,826",474.637
KS Edwards County,20047,-99.304746,37.883595,"3,037",621.975
KS Elk County,20049,-96.244642,37.456026,"2,882",650.466
KS Ellis County,20051,-99.317329,38.914596,"28,452",900.374
KS Ellsworth County,20053,-98.205355,38.700845,"6,497",723.287
KS Finney County,20055,-100.739929,38.049855,"36,776","1,302.672"
KS Ford County,20057,-99.884734,37.688365,"33,848","1,099.081"
KS Franklin County,20059,-95.278962,38.558019,"25,992",577.137
KS Geary County,20061,-96.768038,39.002155,"34,362",404.485
KS Gove County,20063,-100.48736,38.917239,"2,695","1,071.760"
KS Graham County,20065,-99.880952,39.349445,"2,597",898.753
KS Grant County,20067,-101.299362,37.547537,"7,829",575.145
KS Gray County,20069,-100.451716,37.744513,"6,006",869.297
KS Greeley County,20071,-101.805984,38.480408,"1,247",778.450
KS Greenwood County,20073,-96.242232,37.878659,"6,689","1,152.627"
KS Hamilton County,20075,-101.793689,37.995244,"2,690",997.629
KS Harper County,20077,-98.06659,37.188184,"6,034",802.780
KS Harvey County,20079,-97.436707,38.050144,"34,684",540.722
KS Haskell County,20081,-100.876869,37.55855,"4,256",577.873
KS Hodgeman County,20083,-99.898407,38.087493,"1,916",860.311
KS Jackson County,20085,-95.794509,39.410989,"13,462",658.019
KS Jefferson County,20087,-95.375314,39.239644,"19,126",556.677
KS Jewell County,20089,-98.222584,39.77701,"3,077",914.360
KS Johnson County,20091,-94.82233,38.883907,"544,179",479.897
KS Kearny County,20093,-101.308136,37.994461,"3,977",870.981
KS Kingman County,20095,-98.144529,37.552951,"7,858",866.659
KS Kiowa County,20097,-99.286539,37.561231,"2,553",722.869
KS Labette County,20099,-95.297473,37.191468,"21,607",653.118
KS Lane County,20101,-100.466185,38.481286,"1,750",717.668
KS Leavenworth County,20103,-95.038977,39.189511,"76,227",468.972
KS Lincoln County,20105,-98.214265,39.047276,"3,241",720.457
KS Linn County,20107,-94.844932,38.216549,"9,656",606.396
KS Logan County,20109,-101.157407,38.91327,"2,756","1,073.100"
KS Lyon County,20111,-96.161589,38.455498,"33,690",855.417
KS Mcpherson County,20113,-97.647489,38.395812,"29,180",900.602
KS Marion County,20115,-97.102771,38.359647,"12,660",953.730
KS Marshall County,20117,-96.521243,39.782709,"10,117",905.107
KS Meade County,20119,-100.360094,37.243886,"4,575",979.346
KS Miami County,20121,-94.832963,38.566772,"32,787",590.256
KS Mitchell County,20123,-98.207362,39.393026,"6,373",719.159
KS Montgomery County,20125,-95.742403,37.189537,"35,471",651.481
KS Morris County,20127,-96.644905,38.687696,"5,923",702.889
KS Morton County,20129,-101.809516,37.18525,"3,233",729.927
KS Nemaha County,20131,-96.005381,39.791043,"10,178",719.438
KS Neosho County,20133,-95.315683,37.564283,"16,512",577.794
KS Ness County,20135,-99.908745,38.480437,"3,107","1,075.008"
KS Norton County,20137,-99.899235,39.783867,"5,671",881.298
KS Osage County,20139,-95.727275,38.649706,"16,295",719.845
KS Osborne County,20141,-98.767876,39.348649,"3,858",894.360
KS Ottawa County,20143,-97.654803,39.137963,"6,091",721.336
KS Pawnee County,20145,-99.232154,38.182873,"6,973",754.646
KS Phillips County,20147,-99.34215,39.784506,"5,642",894.562
KS Pottawatomie County,20149,-96.337113,39.382187,"21,604",861.911
KS Pratt County,20151,-98.74012,37.647594,"9,656",735.722
KS Rawlins County,20153,-101.076738,39.786198,"2,519","1,069.576"
KS Reno County,20155,-98.078346,37.948185,"64,511","1,272.110"
KS Republic County,20157,-97.650921,39.82891,"4,980",720.447
KS Rice County,20159,-98.201415,38.347178,"10,083",727.963
KS Riley County,20161,-96.727489,39.291211,"71,115",621.956
KS Rooks County,20163,-99.324492,39.346006,"5,181",895.152
KS Rush County,20165,-99.309183,38.523592,"3,307",717.973
KS Russell County,20167,-98.765638,38.916839,"6,970",899.436
KS Saline County,20169,-97.650153,38.786327,"55,606",721.310
KS Scott County,20171,-100.90636,38.481877,"4,936",717.662
KS Sedgwick County,20173,-97.459451,37.683807,"498,365","1,009.121"
KS Seward County,20175,-100.854741,37.180585,"22,952",640.486
KS Shawnee County,20177,-95.755664,39.041805,"177,934",555.726
KS Sheridan County,20179,-100.441206,39.350543,"2,556",896.207
KS Sherman County,20181,-101.719859,39.351352,"6,010","1,056.278"
KS Smith County,20183,-98.78543,39.78466,"3,853",896.965
KS Stafford County,20185,-98.719889,38.03563,"4,437",794.917
KS Stanton County,20187,-101.789383,37.565932,"2,235",680.415
KS Stevens County,20189,-101.315796,37.202356,"5,724",727.473
KS Sumner County,20191,-97.493349,37.236663,"24,132","1,184.955"
KS Thomas County,20193,-101.083439,39.357706,"7,900","1,074.798"
KS Trego County,20195,-99.865423,38.921302,"3,001",899.626
KS Wabaunsee County,20197,-96.201262,38.955154,"7,053",799.620
KS Wallace County,20199,-101.771103,38.926626,"1,485",913.706
KS Washington County,20201,-97.095611,39.776714,"5,799",898.671
KS Wichita County,20203,-101.347434,38.481922,"2,234",718.592
KS Wilson County,20205,-95.745175,37.558515,"9,409",575.073
KS Woodson County,20207,-95.757553,37.888484,"3,309",505.253
KS Wyandotte County,20209,-94.763087,39.115384,"157,505",156.193
KY Adair County,21001,-85.281401,37.105541,"18,656",412.400
KY Allen County,21003,-86.192458,36.75077,"19,956",351.864
KY Anderson County,21005,-84.986417,38.005396,"21,421",204.270
KY Ballard County,21007,-89.009178,37.05112,"8,249",273.690
KY Barren County,21009,-85.92499,36.963614,"42,173",499.999
KY Bath County,21011,-83.737641,38.152249,"11,591",284.004
KY Bell County,21013,-83.681046,36.72268,"28,691",361.116
KY Boone County,21015,-84.731444,38.974595,"118,811",256.464
KY Bourbon County,21017,-84.20986,38.202562,"19,985",291.592
KY Boyd County,21019,-82.681406,38.360004,"49,542",162.022
KY Boyle County,21021,-84.873016,37.6182,"28,432",182.662
KY Bracken County,21023,-84.100355,38.678523,"8,488",208.947
KY Breathitt County,21025,-83.322401,37.521178,"13,878",495.267
KY Breckinridge County,21027,-86.432829,37.778109,"20,059",585.621
KY Bullitt County,21029,-85.703036,37.969572,"74,319",300.265
KY Butler County,21031,-86.682471,37.207013,"12,690",431.473
KY Caldwell County,21033,-87.87051,37.148643,"12,984",348.151
KY Calloway County,21035,-88.274086,36.620978,"37,191",410.696
KY Campbell County,21037,-84.379583,38.946981,"90,336",159.420
KY Carlisle County,21039,-88.975757,36.857726,"5,104",198.980
KY Carroll County,21041,-85.124083,38.668284,"10,811",137.315
KY Carter County,21043,-83.048821,38.309555,"27,720",412.122
KY Casey County,21045,-84.92822,37.321962,"15,955",445.736
KY Christian County,21047,-87.493554,36.893388,"73,955",724.042
KY Clark County,21049,-84.144974,37.970133,"35,613",255.156
KY Clay County,21051,-83.710763,37.164466,"21,730",471.086
KY Clinton County,21053,-85.153499,36.729124,"10,272",205.418
KY Crittenden County,21055,-88.10501,37.358149,"9,315",371.141
KY Cumberland County,21057,-85.393499,36.784227,"6,856",310.908
KY Daviess County,21059,-87.087139,37.731671,"96,656",476.574
KY Edmonson County,21061,-86.217778,37.227856,"12,161",308.004
KY Elliott County,21063,-83.097541,38.116425,"7,852",235.323
KY Estill County,21065,-83.963927,37.69246,"14,672",255.610
KY Fayette County,21067,-84.458443,38.040157,"295,803",285.550
KY Fleming County,21069,-83.706152,38.368431,"14,348",351.316
KY Floyd County,21071,-82.740337,37.558283,"39,451",395.706
KY Franklin County,21073,-84.868786,38.234919,"49,285",212.009
KY Fulton County,21075,-89.187723,36.55262,"6,813",230.619
KY Gallatin County,21077,-84.862114,38.760184,"8,589",104.718
KY Garrard County,21079,-84.545856,37.630162,"16,912",233.945
KY Grant County,21081,-84.625946,38.64921,"24,662",260.766
KY Graves County,21083,-88.649897,36.723344,"37,121",556.788
KY Grayson County,21085,-86.344011,37.458577,"25,746",511.031
KY Green County,21087,-85.561403,37.269637,"11,258",288.789
KY Greenup County,21089,-82.933833,38.563596,"36,910",354.450
KY Hancock County,21091,-86.792773,37.843389,"8,565",198.886
KY Hardin County,21093,-85.963183,37.695836,"105,543",630.136
KY Harlan County,21095,-83.221497,36.859223,"29,278",468.151
KY Harrison County,21097,-84.332796,38.443489,"18,846",309.862
KY Hart County,21099,-85.881995,37.313856,"18,199",417.850
KY Henderson County,21101,-87.572577,37.792542,"46,250",466.280
KY Henry County,21103,-85.120079,38.451561,"15,416",291.123
KY Hickman County,21105,-88.97202,36.675916,"4,902",253.039
KY Hopkins County,21107,-87.542196,37.31107,"46,920",554.415
KY Jackson County,21109,-84.020686,37.40332,"13,494",346.513
KY Jefferson County,21111,-85.657624,38.189533,"741,096",397.682
KY Jessamine County,21113,-84.58396,37.873291,"48,586",174.501
KY Johnson County,21115,-82.830639,37.84926,"23,356",264.135
KY Kenton County,21117,-84.533492,38.930477,"159,720",164.347
KY Knott County,21119,-82.949138,37.354703,"16,346",352.852
KY Knox County,21121,-83.85563,36.887476,"31,883",387.748
KY Larue County,21123,-85.697209,37.545518,"14,193",263.628
KY Laurel County,21125,-84.119395,37.113268,"58,849",443.695
KY Lawrence County,21127,-82.738305,38.074459,"15,860",420.068
KY Lee County,21129,-83.718497,37.605383,"7,887",211.257
KY Leslie County,21131,-83.388616,37.087846,"11,310",404.447
KY Letcher County,21133,-82.861175,37.118503,"24,519",339.033
KY Lewis County,21135,-83.373303,38.532051,"13,870",495.382
KY Lincoln County,21137,-84.658074,37.457257,"24,742",336.576
KY Livingston County,21139,-88.363426,37.209517,"9,519",342.334
KY Logan County,21141,-86.881436,36.859829,"26,835",557.030
KY Lyon County,21143,-88.083391,37.023976,"8,314",256.528
KY Mccracken County,21145,-88.712378,37.053688,"65,565",268.171
KY Mccreary County,21147,-84.491052,36.731136,"18,306",430.947
KY Mclean County,21149,-87.262931,37.530575,"9,531",256.233
KY Madison County,21151,-84.277008,37.723528,"82,916",443.257
KY Magoffin County,21153,-83.069716,37.698954,"13,333",309.158
KY Marion County,21155,-85.269242,37.552247,"19,820",346.858
KY Marshall County,21157,-88.332752,36.882017,"31,448",340.171
KY Martin County,21159,-82.506623,37.796774,"12,929",230.599
KY Mason County,21161,-83.828052,38.594068,"17,490",246.413
KY Meade County,21163,-86.200863,37.967476,"28,602",324.502
KY Menifee County,21165,-83.597345,37.950715,"6,306",205.934
KY Mercer County,21167,-84.879695,37.812085,"21,331",253.311
KY Metcalfe County,21169,-85.629554,36.990394,"10,099",291.189
KY Monroe County,21171,-85.713508,36.714077,"10,963",332.056
KY Montgomery County,21173,-83.912338,38.038138,"26,499",198.857
KY Morgan County,21175,-83.258944,37.92294,"13,923",383.788
KY Muhlenberg County,21177,-87.134092,37.213816,"31,499",479.400
KY Nelson County,21179,-85.465955,37.803188,"43,437",424.076
KY Nicholas County,21181,-84.025554,38.337132,"7,135",196.834
KY Ohio County,21183,-86.844871,37.477859,"23,842",596.227
KY Oldham County,21185,-85.456059,38.400046,"60,316",196.434
KY Owen County,21187,-84.841509,38.499603,"10,841",354.247
KY Owsley County,21189,-83.691566,37.423452,"4,755",198.290
KY Pendleton County,21191,-84.354041,38.690765,"14,877",281.918
KY Perry County,21193,-83.217772,37.241282,"28,712",342.610
KY Pike County,21195,-82.402869,37.482067,"65,024",788.670
KY Powell County,21197,-83.826985,37.810379,"12,613",180.121
KY Pulaski County,21199,-84.579986,37.108312,"63,063",677.154
KY Robertson County,21201,-84.063757,38.513826,"2,282",100.098
KY Rockcastle County,21203,-84.314419,37.36122,"17,056",318.096
KY Rowan County,21205,-83.425969,38.205894,"23,333",286.266
KY Russell County,21207,-85.058976,36.989127,"17,565",282.875
KY Scott County,21209,-84.579376,38.289882,"47,173",285.433
KY Shelby County,21211,-85.22836,38.239426,"42,074",385.671
KY Simpson County,21213,-86.581464,36.740863,"17,327",236.466
KY Spencer County,21215,-85.321525,38.026976,"17,061",191.657
KY Taylor County,21217,-85.326698,37.365106,"24,512",276.817
KY Todd County,21219,-87.183642,36.840338,"12,460",377.056
KY Trigg County,21221,-87.858652,36.807681,"14,339",481.329
KY Trimble County,21223,-85.355171,38.618193,"8,809",156.217
KY Union County,21225,-87.95165,37.658029,"15,007",363.377
KY Warren County,21227,-86.423579,36.995634,"113,792",547.564
KY Washington County,21229,-85.175416,37.754209,"11,717",301.201
KY Wayne County,21231,-84.83044,36.802011,"20,813",484.161
KY Webster County,21233,-87.685095,37.520021,"13,621",335.655
KY Whitley County,21235,-84.14455,36.758021,"35,637",445.119
KY Wolfe County,21237,-83.495068,37.743774,"7,355",222.752
KY Woodford County,21239,-84.748147,38.042789,"24,939",192.036
LA Acadia County,22001,-92.411037,30.291497,"61,773",657.454
LA Allen County,22003,-92.819605,30.652744,"25,764",765.954
LA Ascension County,22005,-90.910023,30.202946,"107,215",302.786
LA Assumption County,22007,-91.050528,29.899884,"23,421",364.530
LA Avoyelles County,22009,-91.993798,31.085094,"42,073",865.744
LA Beauregard County,22011,-93.340253,30.645018,"35,654","1,165.836"
LA Bienville County,22013,-93.061513,32.344268,"14,353",822.070
LA Bossier County,22015,-93.617977,32.696202,"116,979",867.220
LA Caddo County,22017,-93.882423,32.577195,"254,969",936.824
LA Calcasieu County,22019,-93.358015,30.229559,"192,768","1,094.274"
LA Caldwell County,22021,-92.11418,32.101244,"10,132",540.729
LA Cameron County,22023,-93.165437,29.871989,"6,839","1,936.669"
LA Catahoula County,22025,-91.846703,31.666517,"10,407",739.421
LA Claiborne County,22027,-92.991125,32.827585,"17,195",767.416
LA Concordia County,22029,-91.626314,31.469806,"20,822",747.302
LA De Soto County,22031,-93.740797,32.059248,"26,656",894.588
LA East Baton Rouge County,22033,-91.093174,30.544002,"440,171",470.235
LA East Carroll County,22035,-91.234141,32.73017,"7,759",442.432
LA East Feliciana County,22037,-91.043434,30.839784,"20,267",455.778
LA Evangeline County,22039,-92.404086,30.720693,"33,984",679.624
LA Franklin County,22041,-91.672101,32.138279,"20,767",635.438
LA Grant County,22043,-92.561716,31.597787,"22,309",664.653
LA Iberia County,22045,-91.842706,29.606013,"73,240","1,030.528"
LA Iberville County,22047,-91.36315,30.288394,"33,387",652.858
LA Jackson County,22049,-92.556672,32.30448,"16,274",580.277
LA Jefferson County,22051,-90.036231,29.5033,"432,552",665.423
LA Jefferson Davis County,22053,-92.816221,30.269529,"31,594",658.555
LA Lafayette County,22055,-92.06417,30.206507,"221,578",269.209
LA Lafourche County,22057,-90.394849,29.491993,"96,318","1,474.307"
LA La Salle County,22059,-92.161809,31.680836,"14,890",662.394
LA Lincoln County,22061,-92.662082,32.601148,"46,735",472.475
LA Livingston County,22063,-90.727474,30.440419,"128,026",702.847
LA Madison County,22065,-91.240729,32.365824,"12,093",650.900
LA Morehouse County,22067,-91.800399,32.820008,"27,979",806.084
LA Natchitoches County,22069,-93.086106,31.734982,"39,566","1,298.993"
LA Orleans County,22071,-89.939007,30.068636,"343,829",350.212
LA Ouachita County,22073,-92.154798,32.477495,"153,720",631.750
LA Plaquemines County,22075,-89.298489,29.402337,"23,042","2,567.198"
LA Pointe Coupee County,22077,-91.604621,30.708319,"22,802",590.712
LA Rapides County,22079,-92.535953,31.193204,"131,613","1,361.657"
LA Red River County,22081,-93.34905,32.101213,"9,091",402.344
LA Richland County,22083,-91.758375,32.418121,"20,725",564.516
LA Sabine County,22085,-93.559228,31.560209,"24,233","1,011.619"
LA Saint Bernard County,22087,-89.263494,29.91811,"35,897","2,158.072"
LA Saint Charles County,22089,-90.359314,29.913833,"52,780",410.629
LA Saint Helena County,22091,-90.70935,30.821423,"11,203",409.488
LA Saint James County,22093,-90.793956,30.02482,"22,102",257.959
LA Saint John The Baptist County,22095,-90.504677,30.117471,"45,924",347.637
LA Saint Landry County,22097,-91.989275,30.583441,"83,384",938.981
LA Saint Martin County,22099,-91.611481,30.121433,"52,160",816.490
LA Saint Mary County,22101,-91.463804,29.629349,"54,650","1,119.423"
LA Saint Tammany County,22103,-89.951962,30.410022,"233,740","1,124.189"
LA Tangipahoa County,22105,-90.406633,30.621581,"121,097",823.269
LA Tensas County,22107,-91.342576,32.001489,"5,252",641.190
LA Terrebonne County,22109,-90.844191,29.333266,"111,860","2,082.073"
LA Union County,22111,-92.37565,32.829349,"22,721",905.403
LA Vermilion County,22113,-92.29009,29.786872,"57,999","1,542.069"
LA Vernon County,22115,-93.18152,31.110563,"52,334","1,341.485"
LA Washington County,22117,-90.046253,30.852144,"47,168",675.885
LA Webster County,22119,-93.339825,32.732152,"41,207",614.840
LA West Baton Rouge County,22121,-91.309808,30.464052,"23,788",203.823
LA West Carroll County,22123,-91.451998,32.79248,"11,604",360.567
LA West Feliciana County,22125,-91.421008,30.872701,"15,625",426.003
LA Winn County,22127,-92.641269,31.941187,"15,313",956.823
ME Androscoggin County,23001,-70.207435,44.167681,"107,702",497.120
ME Aroostook County,23003,-68.64941,46.727057,"71,870","6,827.568"
ME Cumberland County,23005,-70.330375,43.808348,"281,674","1,217.463"
ME Franklin County,23007,-70.444727,44.973012,"30,768","1,743.479"
ME Hancock County,23009,-68.370703,44.564906,"54,418","2,344.936"
ME Kennebec County,23011,-69.765764,44.417012,"122,151",951.174
ME Knox County,23013,-69.038515,44.042045,"39,736","1,143.946"
ME Lincoln County,23015,-69.514029,43.994265,"34,457",699.603
ME Oxford County,23017,-70.734688,44.494585,"57,833","2,175.716"
ME Penobscot County,23019,-68.657487,45.390602,"153,923","3,557.081"
ME Piscataquis County,23021,-69.104548,45.917678,"17,535","4,377.966"
ME Sagadahoc County,23023,-69.843994,43.916694,"35,293",370.040
ME Somerset County,23025,-69.97604,45.507482,"52,228","4,093.531"
ME Waldo County,23027,-69.139678,44.505361,"38,786",852.756
ME Washington County,23029,-67.609354,44.967009,"32,856","3,257.652"
ME York County,23031,-70.670402,43.427239,"197,131","1,269.714"
MD Allegany County,24001,-78.703108,39.612309,"75,087",429.932
MD Anne Arundel County,24003,-76.560511,38.993374,"537,656",587.801
MD Baltimore County,24005,-76.616569,39.443167,"805,029",681.756
MD Calvert County,24009,-76.525864,38.521358,"88,737",345.071
MD Caroline County,24011,-75.831631,38.871531,"33,066",325.902
MD Carroll County,24013,-77.015512,39.563189,"167,134",452.688
MD Cecil County,24015,-75.941584,39.562352,"101,108",417.837
MD Charles County,24017,-77.015427,38.472853,"146,551",642.968
MD Dorchester County,24019,-76.047433,38.429196,"32,618",983.004
MD Frederick County,24021,-77.397627,39.470427,"233,385",667.378
MD Garrett County,24023,-79.269416,39.529871,"30,097",655.738
MD Harford County,24025,-76.299789,39.537429,"244,826",526.643
MD Howard County,24027,-76.924406,39.252264,"287,085",253.394
MD Kent County,24029,-76.1242,39.239177,"20,197",413.445
MD Montgomery County,24031,-77.203063,39.137382,"971,777",506.947
MD Prince George'S County,24033,-76.847272,38.82588,"863,420",498.836
MD Queen Anne'S County,24035,-76.082405,39.040693,"47,798",510.692
MD Saint Mary'S County,24037,-76.534271,38.222666,"105,151",764.251
MD Somerset County,24039,-75.853323,38.07445,"26,470",610.352
MD Talbot County,24041,-76.17913,38.749427,"37,782",476.805
MD Washington County,24043,-77.814671,39.603621,"147,430",467.343
MD Wicomico County,24045,-75.632206,38.367389,"98,733",400.239
MD Worcester County,24047,-75.309932,38.222133,"51,454",694.859
MD Baltimore [9] County,24510,-76.610516,39.300214,"620,961",92.052
MA Barnstable County,25001,-70.211083,41.798819,"215,888","1,305.537"
MA Berkshire County,25003,-73.213948,42.375314,"131,219",946.428
MA Bristol County,25005,-71.087062,41.748576,"548,285",691.226
MA Dukes County,25007,-70.701536,41.380939,"16,535",490.961
MA Essex County,25009,-70.865107,42.642711,"743,159",828.474
MA Franklin County,25011,-72.591655,42.583791,"71,372",724.574
MA Hampden County,25013,-72.635648,42.136198,"463,490",634.251
MA Hampshire County,25015,-72.663694,42.339459,"158,080",545.209
MA Middlesex County,25017,-71.396507,42.479477,"1,503,085",847.060
MA Nantucket County,25019,-70.14191,41.305878,"10,172",303.656
MA Norfolk County,25021,-71.179875,42.169703,"670,850",444.346
MA Plymouth County,25023,-70.741942,41.987196,"494,919","1,093.252"
MA Suffolk County,25025,-71.020173,42.33196,"722,023",120.219
MA Worcester County,25027,-71.940282,42.311693,"798,552","1,579.194"
MI Alcona County,26001,-82.83408,44.682535,"10,942","1,790.582"
MI Alger County,26003,-86.564108,47.080077,"9,601","5,047.736"
MI Allegan County,26005,-86.634745,42.595788,"111,408","1,833.288"
MI Alpena County,26007,-83.426574,44.894954,"29,598","1,694.922"
MI Antrim County,26009,-85.175625,45.005457,"23,580",601.770
MI Arenac County,26011,-83.740675,44.03687,"15,899",680.690
MI Baraga County,26013,-88.356022,46.696068,"8,860","1,068.771"
MI Barry County,26015,-85.31455,42.582811,"59,173",577.042
MI Bay County,26017,-83.978701,43.699711,"107,771",630.717
MI Benzie County,26019,-86.494317,44.648621,"17,525",859.568
MI Berrien County,26021,-86.741822,41.792639,"156,813","1,581.472"
MI Branch County,26023,-85.066523,41.918585,"45,248",519.676
MI Calhoun County,26025,-85.012385,42.24299,"136,146",718.353
MI Cass County,26027,-85.999457,41.91624,"52,293",508.317
MI Charlevoix County,26029,-85.450392,45.513164,"25,949","1,390.464"
MI Cheboygan County,26031,-84.495271,45.47612,"26,152",885.383
MI Chippewa County,26033,-84.52063,46.321819,"38,520","2,698.390"
MI Clare County,26035,-84.838325,43.991137,"30,926",575.339
MI Clinton County,26037,-84.591695,42.950455,"75,382",574.557
MI Crawford County,26039,-84.611132,44.680208,"14,074",563.242
MI Delta County,26041,-86.901373,45.805101,"37,069","1,991.324"
MI Dickinson County,26043,-87.866119,46.012823,"26,168",777.050
MI Eaton County,26045,-84.846524,42.589614,"107,759",579.433
MI Emmet County,26047,-84.986822,45.590094,"32,694",881.997
MI Genesee County,26049,-83.706372,43.021077,"425,790",649.587
MI Gladwin County,26051,-84.389816,43.98975,"25,692",515.930
MI Gogebic County,26053,-89.788314,46.488054,"16,427","1,476.344"
MI Grand Traverse County,26055,-85.553848,44.718688,"86,986",601.315
MI Gratiot County,26057,-84.60469,43.292326,"42,476",571.611
MI Hillsdale County,26059,-84.642409,41.864475,"46,688",607.006
MI Houghton County,26061,-88.652066,46.998305,"36,628","1,501.501"
MI Huron County,26063,-82.857045,43.907616,"33,118","2,136.802"
MI Ingham County,26065,-84.373811,42.603534,"280,895",560.712
MI Ionia County,26067,-85.073766,42.94465,"63,905",580.046
MI Iosco County,26069,-82.849447,44.329482,"25,887","1,890.057"
MI Iron County,26071,-88.540409,46.170249,"11,817","1,211.210"
MI Isabella County,26073,-84.839425,43.645233,"70,311",577.681
MI Jackson County,26075,-84.420868,42.248474,"160,248",723.496
MI Kalamazoo County,26077,-85.532854,42.246266,"250,331",580.297
MI Kalkaska County,26079,-85.088992,44.678881,"17,153",570.706
MI Kent County,26081,-85.547446,43.032497,"602,622",871.944
MI Keweenaw County,26083,-88.148802,47.681981,"2,156","5,966.190"
MI Lake County,26085,-85.8114,43.995187,"11,539",574.280
MI Lapeer County,26087,-83.224325,43.088633,"88,319",662.845
MI Leelanau County,26089,-86.051574,45.146182,"21,708","2,532.192"
MI Lenawee County,26091,-84.066853,41.895915,"99,892",761.409
MI Livingston County,26093,-83.911718,42.602532,"180,967",585.404
MI Luce County,26095,-85.582368,46.940602,"6,631","1,912.487"
MI Mackinac County,26097,-85.303756,46.167981,"11,113","2,100.644"
MI Macomb County,26099,-82.910869,42.671467,"840,978",570.850
MI Manistee County,26101,-86.602967,44.350385,"24,733","1,280.564"
MI Marquette County,26103,-87.584028,46.656597,"67,077","3,424.540"
MI Mason County,26105,-86.750814,43.996636,"28,705","1,242.442"
MI Mecosta County,26107,-85.332751,43.635295,"42,798",571.194
MI Menominee County,26109,-87.509892,45.544174,"24,029","1,338.212"
MI Midland County,26111,-84.37922,43.648378,"83,629",528.068
MI Missaukee County,26113,-85.085471,44.325424,"14,849",573.829
MI Monroe County,26115,-83.487106,41.916097,"152,021",680.019
MI Montcalm County,26117,-85.149468,43.312782,"63,342",720.826
MI Montmorency County,26119,-84.130107,45.024134,"9,765",562.652
MI Muskegon County,26121,-86.751892,43.289258,"172,188","1,460.025"
MI Newaygo County,26123,-85.791423,43.562709,"48,460",861.689
MI Oakland County,26125,-83.38421,42.660452,"1,202,362",907.294
MI Oceana County,26127,-86.807575,43.647255,"26,570","1,305.950"
MI Ogemaw County,26129,-84.128073,44.33328,"21,699",574.953
MI Ontonagon County,26131,-89.500461,47.216604,"6,780","3,740.819"
MI Osceola County,26133,-85.322283,43.997552,"23,528",573.096
MI Oscoda County,26135,-84.124894,44.685121,"8,640",571.582
MI Otsego County,26137,-84.576597,45.021794,"24,164",526.189
MI Ottawa County,26139,-86.655342,42.942346,"263,801","1,631.409"
MI Presque Isle County,26141,-83.384019,45.489515,"13,376","2,572.756"
MI Roscommon County,26143,-84.611272,44.339517,"24,449",580.032
MI Saginaw County,26145,-84.05541,43.328267,"200,169",815.966
MI Saint Clair County,26147,-82.668914,42.928804,"163,040",836.506
MI Saint Joseph County,26149,-85.52287,41.911488,"61,295",521.032
MI Sanilac County,26151,-82.642815,43.449155,"43,114","1,589.941"
MI Schoolcraft County,26153,-86.199352,46.020758,"8,485","1,883.979"
MI Shiawassee County,26155,-84.146352,42.951545,"70,648",540.948
MI Tuscola County,26157,-83.436618,43.487902,"55,729",913.911
MI Van Buren County,26159,-86.305697,42.283986,"76,258","1,089.897"
MI Washtenaw County,26161,-83.844634,42.252327,"344,791",722.419
MI Wayne County,26163,-83.261953,42.284664,"1,820,584",672.677
MI Wexford County,26165,-85.570046,44.331375,"32,735",575.466
MN Aitkin County,27001,-93.41976,46.602446,"16,202","1,995.293"
MN Anoka County,27003,-93.242723,45.27411,"330,844",446.111
MN Becker County,27005,-95.741757,46.937629,"32,504","1,445.183"
MN Beltrami County,27007,-94.986698,47.878825,"44,442","3,055.756"
MN Benton County,27009,-94.00144,45.701227,"38,451",413.058
MN Big Stone County,27011,-96.402226,45.419925,"5,269",528.117
MN Blue Earth County,27013,-94.064071,44.038225,"64,013",765.593
MN Brown County,27015,-94.733647,44.246542,"25,893",618.464
MN Carlton County,27017,-92.671044,46.603818,"35,386",875.283
MN Carver County,27019,-93.800575,44.821381,"91,042",376.112
MN Cass County,27021,-94.333773,46.951427,"28,567","2,414.107"
MN Chippewa County,27023,-95.564108,45.028625,"12,441",587.777
MN Chisago County,27025,-92.903849,45.505444,"53,887",442.409
MN Clay County,27027,-96.494901,46.898377,"58,999","1,052.648"
MN Clearwater County,27029,-95.371117,47.575873,"8,695","1,029.736"
MN Cook County,27031,-90.29019,47.538571,"5,176","3,339.550"
MN Cottonwood County,27033,-95.18313,44.010711,"11,687",648.561
MN Crow Wing County,27035,-94.071213,46.491114,"62,500","1,156.527"
MN Dakota County,27037,-93.062481,44.670893,"398,552",586.867
MN Dodge County,27039,-92.869353,44.020706,"20,087",439.585
MN Douglas County,27041,-95.46061,45.936429,"36,009",720.005
MN Faribault County,27043,-93.947234,43.676522,"14,553",721.905
MN Fillmore County,27045,-92.093681,43.67727,"20,866",862.090
MN Freeborn County,27047,-93.350289,43.674202,"31,255",722.421
MN Goodhue County,27049,-92.716,44.406178,"46,183",780.400
MN Grant County,27051,-96.010699,45.930743,"6,018",575.482
MN Hennepin County,27053,-93.475185,45.006064,"1,152,425",606.547
MN Houston County,27055,-91.501556,43.66699,"19,027",568.837
MN Hubbard County,27057,-94.91329,47.095551,"20,428",999.560
MN Isanti County,27059,-93.296339,45.562431,"37,816",451.656
MN Itasca County,27061,-93.613128,47.490843,"45,058","2,927.963"
MN Jackson County,27063,-95.149704,43.673025,"10,266",719.235
MN Kanabec County,27065,-93.297788,45.94776,"16,239",533.682
MN Kandiyohi County,27067,-95.004981,45.152714,"42,239",862.352
MN Kittson County,27069,-96.780349,48.77604,"4,552","1,103.604"
MN Koochiching County,27071,-93.782842,48.24549,"13,311","3,154.022"
MN Lac Qui Parle County,27073,-96.176836,44.999855,"7,259",778.011
MN Lake County,27075,-91.411704,47.517111,"10,866","2,990.630"
MN Lake Of The Woods County,27077,-94.904634,48.7681,"4,045","1,774.665"
MN Le Sueur County,27079,-93.73018,44.373397,"27,703",473.807
MN Lincoln County,27081,-96.272032,44.408238,"5,896",548.433
MN Lyon County,27083,-95.847268,44.409195,"25,857",721.668
MN Mcleod County,27085,-94.27232,44.821644,"36,651",505.528
MN Mahnomen County,27087,-95.810703,47.325842,"5,413",582.912
MN Marshall County,27089,-96.357761,48.362728,"9,439","1,812.906"
MN Martin County,27091,-94.537198,43.677118,"20,840",729.576
MN Meeker County,27093,-94.527346,45.123156,"23,300",644.775
MN Mille Lacs County,27095,-93.632996,45.929043,"26,097",681.581
MN Morrison County,27097,-94.266619,46.020484,"33,198","1,153.387"
MN Mower County,27099,-92.759514,43.666249,"39,163",711.567
MN Murray County,27101,-95.761581,44.015594,"8,725",719.502
MN Nicollet County,27103,-94.245685,44.35882,"32,727",466.743
MN Nobles County,27105,-95.763132,43.677686,"21,378",722.557
MN Norman County,27107,-96.463807,47.32947,"6,852",876.730
MN Olmsted County,27109,-92.406722,44.00343,"144,248",654.799
MN Otter Tail County,27111,-95.714578,46.405725,"57,303","2,224.538"
MN Pennington County,27113,-96.037725,48.069247,"13,930",618.250
MN Pine County,27115,-92.763094,46.10094,"29,750","1,434.558"
MN Pipestone County,27117,-96.257015,44.015361,"9,596",465.962
MN Polk County,27119,-96.400027,47.774254,"31,600","1,997.785"
MN Pope County,27121,-95.446705,45.589623,"10,995",717.104
MN Ramsey County,27123,-93.100141,45.01525,"508,640",170.078
MN Red Lake County,27125,-96.08718,47.865487,"4,089",432.495
MN Redwood County,27127,-95.254242,44.403536,"16,059",881.750
MN Renville County,27129,-94.955617,44.723697,"15,730",987.096
MN Rice County,27131,-93.298503,44.350943,"64,142",515.935
MN Rock County,27133,-96.263238,43.669587,"9,687",482.725
MN Roseau County,27135,-95.82153,48.761066,"15,629","1,678.137"
MN Saint Louis County,27137,-92.463645,47.583852,"200,226","6,859.503"
MN Scott County,27139,-93.534553,44.651932,"129,928",368.383
MN Sherburne County,27141,-93.775092,45.443171,"88,499",451.043
MN Sibley County,27143,-94.230123,44.575734,"15,226",600.521
MN Stearns County,27145,-94.610482,45.555235,"150,642","1,389.952"
MN Steele County,27147,-93.220453,44.015261,"36,576",432.339
MN Stevens County,27149,-95.992315,45.593461,"9,726",575.319
MN Swift County,27151,-95.690398,45.27545,"9,783",752.188
MN Todd County,27153,-94.900576,46.066569,"24,895",979.500
MN Traverse County,27155,-96.475049,45.76984,"3,558",585.853
MN Wabasha County,27157,-92.233341,44.289693,"21,676",549.616
MN Wadena County,27159,-94.988331,46.586784,"13,843",543.233
MN Waseca County,27161,-93.589844,44.01846,"19,136",432.973
MN Washington County,27163,-92.890117,45.037929,"238,136",422.745
MN Watonwan County,27165,-94.614128,43.978366,"11,211",439.729
MN Wilkin County,27167,-96.476657,46.362335,"6,576",751.170
MN Winona County,27169,-91.776708,43.982268,"51,461",641.583
MN Wright County,27171,-93.966397,45.175091,"124,700",714.269
MN Yellow Medicine County,27173,-95.862756,44.715736,"10,438",763.227
MS Adams County,28001,-91.351781,31.486218,"32,297",487.548
MS Alcorn County,28003,-88.581014,34.886648,"37,057",401.361
MS Amite County,28005,-90.795542,31.203933,"13,131",731.597
MS Attala County,28007,-89.588622,33.09047,"19,564",736.689
MS Benton County,28009,-89.200029,34.810773,"8,729",408.654
MS Bolivar County,28011,-90.884476,33.799278,"34,145",905.817
MS Calhoun County,28013,-89.337114,33.936634,"14,962",587.959
MS Carroll County,28015,-89.918887,33.440795,"10,597",634.585
MS Chickasaw County,28017,-88.945808,33.921654,"17,392",504.246
MS Choctaw County,28019,-89.251332,33.345964,"8,547",419.855
MS Claiborne County,28021,-90.915424,31.97281,"9,604",501.204
MS Clarke County,28023,-88.685964,32.048448,"16,732",693.534
MS Clay County,28025,-88.783326,33.661734,"20,634",416.006
MS Coahoma County,28027,-90.603165,34.22867,"26,151",583.152
MS Copiah County,28029,-90.448758,31.866915,"29,449",779.464
MS Covington County,28031,-89.548897,31.633331,"19,568",414.931
MS Desoto County,28033,-89.99324,34.874266,"161,252",497.011
MS Forrest County,28035,-89.259447,31.18858,"74,934",470.233
MS Franklin County,28037,-90.895884,31.477798,"8,118",566.763
MS George County,28039,-88.642268,30.855431,"22,578",483.652
MS Greene County,28041,-88.634811,31.212846,"14,400",718.696
MS Grenada County,28043,-89.80274,33.770031,"21,906",449.404
MS Hancock County,28045,-89.47985,30.391437,"43,929",552.500
MS Harrison County,28047,-89.083376,30.416536,"187,105",976.171
MS Hinds County,28049,-90.4659,32.267924,"245,285",877.292
MS Holmes County,28051,-90.091197,33.125942,"19,198",764.618
MS Humphreys County,28053,-90.523911,33.132978,"9,375",431.234
MS Issaquena County,28055,-90.988552,32.754977,"1,406",441.426
MS Itawamba County,28057,-88.363127,34.281075,"23,401",540.450
MS Jackson County,28059,-88.619991,30.458491,"139,668","1,043.396"
MS Jasper County,28061,-89.11943,32.016989,"17,062",677.471
MS Jefferson County,28063,-91.043878,31.733633,"7,726",527.264
MS Jefferson Davis County,28065,-89.826626,31.564734,"12,487",409.138
MS Jones County,28067,-89.167262,31.621044,"67,761",699.708
MS Kemper County,28069,-88.625631,32.750136,"10,456",767.025
MS Lafayette County,28071,-89.485903,34.349298,"47,351",679.207
MS Lamar County,28073,-89.514952,31.197135,"55,658",500.433
MS Lauderdale County,28075,-88.660449,32.403998,"80,261",715.154
MS Lawrence County,28077,-90.10753,31.550009,"12,929",435.770
MS Leake County,28079,-89.522568,32.753268,"23,805",585.477
MS Lee County,28081,-88.680887,34.288965,"82,910",453.175
MS Leflore County,28083,-90.294934,33.54979,"32,317",606.380
MS Lincoln County,28085,-90.453566,31.535216,"34,869",588.175
MS Lowndes County,28087,-88.439723,33.471424,"59,779",516.465
MS Madison County,28089,-90.03416,32.63437,"95,203",741.780
MS Marion County,28091,-89.821736,31.230126,"27,088",548.621
MS Marshall County,28093,-89.504231,34.76619,"37,144",709.766
MS Monroe County,28095,-88.485038,33.89003,"36,989",772.096
MS Montgomery County,28097,-89.639625,33.500714,"10,925",407.889
MS Neshoba County,28099,-89.119274,32.752518,"29,676",571.614
MS Newton County,28101,-89.118412,32.40197,"21,720",579.602
MS Noxubee County,28103,-88.565787,33.10627,"11,545",699.980
MS Oktibbeha County,28105,-88.876151,33.422313,"47,671",461.933
MS Panola County,28107,-89.963065,34.365205,"34,707",705.131
MS Pearl River County,28109,-89.586832,30.773791,"55,834",818.908
MS Perry County,28111,-88.988755,31.169307,"12,250",650.202
MS Pike County,28113,-90.397725,31.177517,"40,404",410.694
MS Pontotoc County,28115,-89.037239,34.227081,"29,957",501.021
MS Prentiss County,28117,-88.52224,34.620866,"25,276",418.199
MS Quitman County,28119,-90.290525,34.25264,"8,223",406.431
MS Rankin County,28121,-89.946552,32.262057,"141,617",806.086
MS Scott County,28123,-89.533209,32.427127,"28,264",610.390
MS Sharkey County,28125,-90.827388,32.89249,"4,916",435.120
MS Simpson County,28127,-89.917707,31.902503,"27,503",590.469
MS Smith County,28129,-89.494973,32.019034,"16,491",637.271
MS Stone County,28131,-89.112297,30.790184,"17,786",448.077
MS Sunflower County,28133,-90.59509,33.605529,"29,450",706.927
MS Tallahatchie County,28135,-90.172833,33.955891,"15,378",652.142
MS Tate County,28137,-89.943105,34.649553,"28,886",410.972
MS Tippah County,28139,-88.918819,34.763618,"22,232",459.955
MS Tishomingo County,28141,-88.236067,34.737699,"19,593",444.519
MS Tunica County,28143,-90.37177,34.652201,"10,778",480.727
MS Union County,28145,-89.0023,34.489101,"27,134",416.906
MS Walthall County,28147,-90.103431,31.164492,"15,443",404.406
MS Warren County,28149,-90.851791,32.357005,"48,773",618.554
MS Washington County,28151,-90.94443,33.273131,"51,137",761.226
MS Wayne County,28153,-88.682057,31.64476,"20,747",813.518
MS Webster County,28155,-89.283836,33.612048,"10,253",423.233
MS Wilkinson County,28157,-91.325567,31.160249,"9,878",687.766
MS Winston County,28159,-89.037391,33.078724,"19,198",610.086
MS Yalobusha County,28161,-89.703793,34.030669,"12,678",495.004
MS Yazoo County,28163,-90.387928,32.765675,"28,065",934.266
MO Adair County,29001,-92.603592,40.190666,"25,607",569.436
MO Andrew County,29003,-94.803551,39.988863,"17,291",436.429
MO Atchison County,29005,-95.437555,40.431846,"5,685",550.128
MO Audrain County,29007,-91.843415,39.21448,"25,529",696.822
MO Barry County,29009,-93.834326,36.699378,"35,597",790.970
MO Barton County,29011,-94.344089,37.500799,"12,402",596.722
MO Bates County,29013,-94.339246,38.257217,"17,049",851.381
MO Benton County,29015,-93.287942,38.301036,"19,056",752.547
MO Bollinger County,29017,-90.024601,37.318349,"12,363",621.199
MO Boone County,29019,-92.310779,38.989657,"162,642",690.981
MO Buchanan County,29021,-94.808173,39.66037,"89,201",414.658
MO Butler County,29023,-90.40313,36.71518,"42,794",698.991
MO Caldwell County,29025,-93.979179,39.658998,"9,424",429.637
MO Callaway County,29027,-91.924089,38.835966,"44,332",847.358
MO Camden County,29029,-92.765138,38.031995,"44,002",708.645
MO Cape Girardeau County,29031,-89.684908,37.383882,"75,674",586.325
MO Carroll County,29033,-93.500227,39.427375,"9,295",701.391
MO Carter County,29035,-90.945626,36.944783,"6,265",509.021
MO Cass County,29037,-94.354242,38.647159,"99,478",702.488
MO Cedar County,29039,-93.850014,37.733655,"13,982",498.654
MO Chariton County,29041,-92.961621,39.517969,"7,831",766.762
MO Christian County,29043,-93.187614,36.969739,"77,422",563.808
MO Clark County,29045,-91.729472,40.407275,"7,139",511.825
MO Clay County,29047,-94.421502,39.315551,"221,939",408.671
MO Clinton County,29049,-94.395803,39.608723,"20,743",423.483
MO Cole County,29051,-92.271404,38.506847,"75,990",401.925
MO Cooper County,29053,-92.812323,38.845386,"17,601",569.181
MO Crawford County,29055,-91.313933,37.966561,"24,696",743.754
MO Dade County,29057,-93.854878,37.43235,"7,883",506.255
MO Dallas County,29059,-93.033812,37.683583,"16,777",542.850
MO Daviess County,29061,-93.970053,39.962839,"8,433",569.045
MO Dekalb County,29063,-94.40719,39.894665,"12,892",425.821
MO Dent County,29065,-91.495916,37.60325,"15,657",754.506
MO Douglas County,29067,-92.515892,36.946517,"13,684",814.597
MO Dunklin County,29069,-90.062254,36.153025,"31,953",547.184
MO Franklin County,29071,-91.07341,38.408313,"101,492",930.685
MO Gasconade County,29073,-91.50578,38.441183,"15,222",524.441
MO Gentry County,29075,-94.40411,40.209379,"6,738",491.716
MO Greene County,29077,-93.340641,37.258196,"275,174",677.880
MO Grundy County,29079,-93.565054,40.112541,"10,261",438.026
MO Harrison County,29081,-93.992582,40.34562,"8,957",726.405
MO Henry County,29083,-93.792628,38.386491,"22,272",732.329
MO Hickory County,29085,-93.322835,37.9367,"9,627",411.708
MO Holt County,29087,-95.219072,40.095724,"4,912",470.353
MO Howard County,29089,-92.695926,39.143365,"10,144",471.530
MO Howell County,29091,-91.887368,36.774369,"40,400",928.373
MO Iron County,29093,-90.699627,37.62596,"10,630",552.064
MO Jackson County,29095,-94.342507,39.007233,"674,158",616.246
MO Jasper County,29097,-94.338869,37.200865,"117,404",641.278
MO Jefferson County,29099,-90.543138,38.257414,"218,733",664.285
MO Johnson County,29101,-93.805999,38.74588,"52,595",833.192
MO Knox County,29103,-92.146809,40.136776,"4,131",506.830
MO Laclede County,29105,-92.594832,37.65969,"35,571",768.012
MO Lafayette County,29107,-93.802639,39.068705,"33,381",638.943
MO Lawrence County,29109,-93.833262,37.106135,"38,634",613.378
MO Lewis County,29111,-91.728803,40.084559,"10,211",510.796
MO Lincoln County,29113,-90.957771,39.058568,"52,566",640.463
MO Linn County,29115,-93.108019,39.86444,"12,761",621.376
MO Livingston County,29117,-93.548201,39.778587,"15,195",538.567
MO Mcdonald County,29119,-94.343956,36.630218,"23,083",539.681
MO Macon County,29121,-92.56434,39.829795,"15,566",812.372
MO Madison County,29123,-90.345453,37.473235,"12,226",497.600
MO Maries County,29125,-91.923601,38.162615,"9,176",529.927
MO Marion County,29127,-91.635379,39.807538,"28,781",444.304
MO Mercer County,29129,-93.567631,40.421414,"3,785",455.110
MO Miller County,29131,-92.429871,38.21672,"24,748",599.992
MO Mississippi County,29133,-89.295929,36.826264,"14,358",428.762
MO Moniteau County,29135,-92.583642,38.633037,"15,607",418.871
MO Monroe County,29137,-92.006458,39.49827,"8,840",670.163
MO Montgomery County,29139,-91.465437,38.935162,"12,236",542.008
MO Morgan County,29141,-92.874835,38.420807,"20,565",614.021
MO New Madrid County,29143,-89.655949,36.594261,"18,956",696.574
MO Newton County,29145,-94.334741,36.908017,"58,114",626.586
MO Nodaway County,29147,-94.883281,40.360484,"23,370",877.876
MO Oregon County,29149,-91.402902,36.684867,"10,881",791.545
MO Osage County,29151,-91.859504,38.464254,"13,878",610.451
MO Ozark County,29153,-92.45858,36.649643,"9,723",755.233
MO Pemiscot County,29155,-89.785942,36.209916,"18,296",513.434
MO Perry County,29157,-89.802125,37.71113,"18,971",484.160
MO Pettis County,29159,-93.285207,38.727367,"42,201",686.269
MO Phelps County,29161,-91.790349,37.866326,"45,156",674.322
MO Pike County,29163,-91.171042,39.344178,"18,516",684.716
MO Platte County,29165,-94.761472,39.378696,"89,322",426.805
MO Polk County,29167,-93.400817,37.616761,"31,137",642.411
MO Pulaski County,29169,-92.207022,37.824835,"52,274",551.480
MO Putnam County,29171,-93.014531,40.478606,"4,979",519.611
MO Ralls County,29173,-91.524787,39.553455,"10,167",483.834
MO Randolph County,29175,-92.492725,39.441601,"25,414",487.825
MO Ray County,29177,-93.995746,39.308401,"23,494",573.936
MO Reynolds County,29179,-90.969516,37.360857,"6,696",814.413
MO Ripley County,29181,-90.86706,36.648902,"14,100",631.641
MO Saint Charles County,29183,-90.674915,38.781102,"360,485",592.607
MO Saint Clair County,29185,-93.773077,38.039069,"9,805",702.051
MO Ste. Genevieve County,29186,-90.18117,37.89018,"18,145",506.775
MO Saint Francois County,29187,-90.473868,37.810707,"65,359",454.674
MO Saint Louis County,29189,-90.445954,38.640702,"998,954",523.018
MO Saline County,29195,-93.204164,39.13584,"23,370",766.916
MO Schuyler County,29197,-92.519016,40.469361,"4,431",308.159
MO Scotland County,29199,-92.142824,40.447686,"4,843",439.296
MO Scott County,29201,-89.568098,37.047793,"39,191",425.857
MO Shannon County,29203,-91.398364,37.15198,"8,441","1,003.999"
MO Shelby County,29205,-92.088719,39.797531,"6,373",502.318
MO Stoddard County,29207,-89.941735,36.855428,"29,968",829.021
MO Stone County,29209,-93.467782,36.747857,"32,202",510.777
MO Sullivan County,29211,-93.109783,40.209587,"6,714",651.504
MO Taney County,29213,-93.042819,36.649827,"51,675",651.639
MO Texas County,29215,-91.964478,37.314257,"26,008","1,179.224"
MO Vernon County,29217,-94.341597,37.850196,"21,159",836.829
MO Warren County,29219,-91.159307,38.761902,"32,513",437.770
MO Washington County,29221,-90.897056,37.942315,"25,195",762.489
MO Wayne County,29223,-90.460868,37.113825,"13,521",774.064
MO Webster County,29225,-92.87608,37.280804,"36,202",593.763
MO Worth County,29227,-94.419129,40.480482,"2,171",266.820
